{
"type": "FeatureCollection",
"features": [
{ "type": "Feature", "properties": { "city_name": "г. Аткарск", "fon": "г. Аткарск ул. Советская 62 -", "house_number": "62", "latitude": 51.8706, "longitude": 44.997, "od": "2015-09-01 00:00:00", "oid": 2023915, "on": "Аткарск, ул. Советская 62", "pb2c": "88001000800", "pla": false, "pr": 1, "r12c": "523501", "rid": 64, "sb2b": false, "sb2c": true, "street_name": "ул. Советская" }, "geometry": { "type": "Point", "coordinates": [ 44.997, 51.8706 ] } },
{ "type": "Feature", "properties": { "city_name": "г. Энгельс", "fon": "г. Энгельс ул. Волоха 9 -", "house_number": "9", "latitude": 51.4914, "longitude": 46.1177, "od": "2015-09-01 00:00:00", "oid": 2023919, "on": "Энгельс, ул. Волоха 9", "pb2c": "88001000800", "pla": false, "pr": 2, "r12c": "523512", "rid": 64, "sb2b": false, "sb2c": true, "street_name": "ул. Волоха" }, "geometry": { "type": "Point", "coordinates": [ 46.1177, 51.4914 ] } },
{ "type": "Feature", "properties": { "city_name": "г. Орск", "fon": "г. Орск ул. Ленина 23 -", "house_number": "23", "latitude": 51.22789, "longitude": 58.47549, "od": "2015-09-01 00:00:00", "oid": 2023920, "on": "Орск, ул. Ленина 23", "pb2c": "88001000800", "pla": false, "pr": 2, "r12c": "523211", "rid": 56, "sb2b": false, "sb2c": true, "street_name": "ул. Ленина" }, "geometry": { "type": "Point", "coordinates": [ 58.47549, 51.22789 ] } },
{ "type": "Feature", "properties": { "city_name": "г. Саранск", "fon": "г. Саранск ул. Большевистская 11 -", "house_number": "11", "latitude": 54.182306, "longitude": 45.182243, "od": "2015-09-01 00:00:00", "oid": 2023928, "on": "Саранск, ул. Большевистская 11", "pb2c": "88001000800", "pla": false, "pr": 2, "r12c": "523552", "rid": 13, "sb2b": false, "sb2c": true, "street_name": "ул. Большевистская" }, "geometry": { "type": "Point", "coordinates": [ 45.182243, 54.182306 ] } },
{ "type": "Feature", "properties": { "city_name": "с. Сакмара", "fon": "с. Сакмара ул. Советская 23 -", "house_number": "23", "latitude": 51.9848, "longitude": 55.3329, "od": "2015-09-01 00:00:00", "oid": 2023939, "on": "Сакмара, ул. Советская 23", "pb2c": "88001000800", "pla": false, "pr": 1, "r12c": "523213", "rid": 56, "sb2b": false, "sb2c": true, "street_name": "ул. Советская" }, "geometry": { "type": "Point", "coordinates": [ 55.3329, 51.9848 ] } },
{ "type": "Feature", "properties": { "city_name": "г. Соль-Илецк", "fon": "г. Соль-Илецк ул. Цвиллинга 66 -", "house_number": "66", "latitude": 51.1582, "longitude": 54.9802, "od": "2015-09-01 00:00:00", "oid": 2023940, "on": "Соль-Илецк, ул. Цвиллинга 66", "pb2c": "88001000800", "pla": false, "pr": 1, "r12c": "523215", "rid": 56, "sb2b": false, "sb2c": true, "street_name": "ул. Цвиллинга" }, "geometry": { "type": "Point", "coordinates": [ 54.9802, 51.1582 ] } },
{ "type": "Feature", "properties": { "city_name": "п. Тюльган", "fon": "п. Тюльган ул. Максима Горького 27 -", "house_number": "27", "latitude": 52.3409, "longitude": 56.1604, "od": "2015-09-01 00:00:00", "oid": 2023941, "on": "Тюльган, ул. Максима Горького 27", "pb2c": "88001000800", "pla": false, "pr": 1, "r12c": "523221", "rid": 56, "sb2b": false, "sb2c": true, "street_name": "ул. Максима Горького" }, "geometry": { "type": "Point", "coordinates": [ 56.1604, 52.3409 ] } },
{ "type": "Feature", "properties": { "city_name": "пгт. Сернур", "fon": "пгт. Сернур ул. Коммунистическая 83 -", "house_number": "83", "latitude": 56.9337, "longitude": 49.1465, "od": "2015-09-01 00:00:00", "oid": 2023951, "on": "Сернур, ул. Коммунистическая 83", "pb2c": "88001000800", "pla": false, "pr": 1, "r12c": "523663", "rid": 12, "sb2b": false, "sb2c": true, "street_name": "ул. Коммунистическая" }, "geometry": { "type": "Point", "coordinates": [ 49.1465, 56.9337 ] } },
{ "type": "Feature", "properties": { "city_name": "г. Звенигово", "fon": "г. Звенигово ул. Пушкина 53 -", "house_number": "53", "latitude": 55.9695, "longitude": 48.0199, "od": "2015-09-01 00:00:00", "oid": 2023953, "on": "Звенигово, ул. Пушкина 53", "pb2c": "88001000800", "pla": false, "pr": 1, "r12c": "523655", "rid": 12, "sb2b": false, "sb2c": true, "street_name": "ул. Пушкина" }, "geometry": { "type": "Point", "coordinates": [ 48.0199, 55.9695 ] } },
{ "type": "Feature", "properties": { "city_name": "г. Кузнецк", "fon": "г. Кузнецк ул. Ленина 247 -", "house_number": "247", "latitude": 53.1168, "longitude": 46.6093, "od": "2015-09-01 00:00:00", "oid": 2023958, "on": "Кузнецк, ул. Ленина 247", "pb2c": "88001000800", "pla": false, "pr": 1, "r12c": "523304", "rid": 58, "sb2b": false, "sb2c": true, "street_name": "ул. Ленина" }, "geometry": { "type": "Point", "coordinates": [ 46.6093, 53.1168 ] } },
{ "type": "Feature", "properties": { "city_name": "с. Октябрьское", "fon": "с. Октябрьское ул. Калинина 3 -", "house_number": "3", "latitude": 52.352645, "longitude": 55.496608, "od": "2015-09-01 00:00:00", "oid": 2023966, "on": "Октябрьское, ул. Калинина 3", "pb2c": "88001000800", "pla": false, "pr": 1, "r12c": "523218", "rid": 56, "sb2b": false, "sb2c": true, "street_name": "ул. Калинина" }, "geometry": { "type": "Point", "coordinates": [ 55.496608, 52.352645 ] } },
{ "type": "Feature", "properties": { "city_name": "г. Нижний Новгород", "fon": "г. Нижний Новгород ул. Большая Покровская 56 -", "house_number": "56", "latitude": 56.3157, "longitude": 43.9923, "od": "2015-09-01 00:00:00", "oid": 2023978, "on": "Нижний Новгород, ул. Большая Покровская 56", "pb2c": "88001000800", "pla": false, "pr": 2, "r12c": "523114", "rid": 52, "sb2b": false, "sb2c": true, "street_name": "ул. Большая Покровская" }, "geometry": { "type": "Point", "coordinates": [ 43.9923, 56.3157 ] } },
{ "type": "Feature", "properties": { "city_name": "п. Переволоцкий", "fon": "п. Переволоцкий ул. Пролетарская 76 -", "house_number": "76", "latitude": 51.8764, "longitude": 54.1896, "od": "2015-09-01 00:00:00", "oid": 2023979, "on": "Переволоцкий, ул. Пролетарская 76", "pb2c": "88001000800", "pla": false, "pr": 1, "r12c": "523212", "rid": 56, "sb2b": false, "sb2c": true, "street_name": "ул. Пролетарская" }, "geometry": { "type": "Point", "coordinates": [ 54.1896, 51.8764 ] } },
{ "type": "Feature", "properties": { "city_name": "г. Балашов", "fon": "г. Балашов ул. Карла Маркса 30 -", "house_number": "30", "latitude": 51.5485, "longitude": 43.1471, "od": "2015-09-01 00:00:00", "oid": 2023984, "on": "Балашов, ул. Карла Маркса 30", "pb2c": "88001000800", "pla": false, "pr": 1, "r12c": "523503", "rid": 64, "sb2b": false, "sb2c": true, "street_name": "ул. Карла Маркса" }, "geometry": { "type": "Point", "coordinates": [ 43.1471, 51.5485 ] } },
{ "type": "Feature", "properties": { "city_name": "г. Ульяновск", "fon": "г. Ульяновск ул. Льва Толстого 95 -", "house_number": "95", "latitude": 54.3127, "longitude": 48.3933, "od": "2015-09-01 00:00:00", "oid": 2023987, "on": "Ульяновск, ул. Льва Толстого 95", "pb2c": "88001000800", "pla": false, "pr": 2, "r12c": "523855", "rid": 73, "sb2b": false, "sb2c": true, "street_name": "ул. Льва Толстого" }, "geometry": { "type": "Point", "coordinates": [ 48.3933, 54.3127 ] } },
{ "type": "Feature", "properties": { "city_name": "г. Чебоксары", "fon": "г. Чебоксары ул. Гагарина Ю. 20 а -", "house_number": "20 а", "latitude": 56.1239, "longitude": 47.2601, "od": "2015-09-01 00:00:00", "oid": 2023991, "on": "Чебоксары, ул. Гагарина Ю. 20 а", "pb2c": "88001000800", "pla": false, "pr": 1, "r12c": "523807", "rid": 21, "sb2b": false, "sb2c": true, "street_name": "ул. Гагарина Ю." }, "geometry": { "type": "Point", "coordinates": [ 47.2601, 56.1239 ] } },
{ "type": "Feature", "properties": { "city_name": "пгт. Новый Торъял", "fon": "пгт. Новый Торъял ул. Юбилейная 15 -", "house_number": "15", "latitude": 57.0057, "longitude": 48.7288, "od": "2015-09-01 00:00:00", "oid": 2023994, "on": "Новый Торъял, ул. Юбилейная 15", "pb2c": "88001000800", "pla": false, "pr": 1, "r12c": "523660", "rid": 12, "sb2b": false, "sb2c": true, "street_name": "ул. Юбилейная" }, "geometry": { "type": "Point", "coordinates": [ 48.7288, 57.0057 ] } },
{ "type": "Feature", "properties": { "city_name": "пгт. Советский", "fon": "пгт. Советский ул. Котовского 6 -", "house_number": "6", "latitude": 56.759493, "longitude": 48.483652, "od": "2015-09-01 00:00:00", "oid": 2023995, "on": "Советский, ул. Котовского 6", "pb2c": "88001000800", "pla": false, "pr": 1, "r12c": "523654", "rid": 12, "sb2b": false, "sb2c": true, "street_name": "ул. Котовского" }, "geometry": { "type": "Point", "coordinates": [ 48.483652, 56.759493 ] } },
{ "type": "Feature", "properties": { "city_name": "г. Волжск", "fon": "г. Волжск ул. Ленина 22 -", "house_number": "22", "latitude": 55.8682, "longitude": 48.3578, "od": "2015-09-01 00:00:00", "oid": 2023996, "on": "Волжск, ул. Ленина 22", "pb2c": "88001000800", "pla": false, "pr": 1, "r12c": "523651", "rid": 12, "sb2b": false, "sb2c": true, "street_name": "ул. Ленина" }, "geometry": { "type": "Point", "coordinates": [ 48.3578, 55.8682 ] } },
{ "type": "Feature", "properties": { "city_name": "г. Новотроицк", "fon": "г. Новотроицк пр-кт Комсомольский 6 -", "house_number": "6", "latitude": 51.1896, "longitude": 58.2888, "od": "2015-09-01 00:00:00", "oid": 2024000, "on": "Новотроицк, пр-кт Комсомольский 6", "pb2c": "88001000800", "pla": false, "pr": 1, "r12c": "523209", "rid": 56, "sb2b": false, "sb2c": true, "street_name": "пр-кт Комсомольский" }, "geometry": { "type": "Point", "coordinates": [ 58.2888, 51.1896 ] } },
{ "type": "Feature", "properties": { "city_name": "г. Сорочинск", "fon": "г. Сорочинск ул. Карла Маркса 21 -", "house_number": "21", "latitude": 52.4328, "longitude": 53.1573, "od": "2015-09-01 00:00:00", "oid": 2024001, "on": "Сорочинск, ул. Карла Маркса 21", "pb2c": "88001000800", "pla": false, "pr": 1, "r12c": "523216", "rid": 56, "sb2b": false, "sb2c": true, "street_name": "ул. Карла Маркса" }, "geometry": { "type": "Point", "coordinates": [ 53.1573, 52.4328 ] } },
{ "type": "Feature", "properties": { "city_name": "г. Каменка", "fon": "г. Каменка ул. Центральная 4 -", "house_number": "4", "latitude": 53.1851, "longitude": 43.9968, "od": "2015-09-01 00:00:00", "oid": 2024003, "on": "Каменка, ул. Центральная 4", "pb2c": "88001000800", "pla": false, "pr": 1, "r12c": "523303", "rid": 58, "sb2b": false, "sb2c": true, "street_name": "ул. Центральная" }, "geometry": { "type": "Point", "coordinates": [ 43.9968, 53.1851 ] } },
{ "type": "Feature", "properties": { "city_name": "г. Козьмодемьянск", "fon": "г. Козьмодемьянск ул. Юбилейная 9 -", "house_number": "9", "latitude": 56.3365, "longitude": 46.5446, "od": "2015-09-01 00:00:00", "oid": 2024008, "on": "Козьмодемьянск, ул. Юбилейная 9", "pb2c": "88001000800", "pla": false, "pr": 1, "r12c": "523657", "rid": 12, "sb2b": false, "sb2c": true, "street_name": "ул. Юбилейная" }, "geometry": { "type": "Point", "coordinates": [ 46.5446, 56.3365 ] } },
{ "type": "Feature", "properties": { "city_name": "г. Вольск", "fon": "г. Вольск ул. Комсомольская 164 -", "house_number": "164", "latitude": 52.0508, "longitude": 47.3731, "od": "2015-09-01 00:00:00", "oid": 2024012, "on": "Вольск, ул. Комсомольская 164", "pb2c": "88001000800", "pla": false, "pr": 1, "r12c": "523504", "rid": 64, "sb2b": false, "sb2c": true, "street_name": "ул. Комсомольская" }, "geometry": { "type": "Point", "coordinates": [ 47.3731, 52.0508 ] } },
{ "type": "Feature", "properties": { "city_name": "г. Пугачев", "fon": "г. Пугачев ул. Топорковская 6 -", "house_number": "6", "latitude": 52.0111, "longitude": 48.817, "od": "2015-09-01 00:00:00", "oid": 2024013, "on": "Пугачев, ул. Топорковская 6", "pb2c": "88001000800", "pla": false, "pr": 2, "r12c": "523508", "rid": 64, "sb2b": false, "sb2c": true, "street_name": "ул. Топорковская" }, "geometry": { "type": "Point", "coordinates": [ 48.817, 52.0111 ] } },
{ "type": "Feature", "properties": { "city_name": "г. Балаково", "fon": "г. Балаково ул. Проспект Героев 23 -", "house_number": "23", "latitude": 52.0221, "longitude": 47.8308, "od": "2015-09-01 00:00:00", "oid": 2024015, "on": "Балаково, ул. Проспект Героев 23", "pb2c": "88001000800", "pla": false, "pr": 4, "r12c": "523502", "rid": 64, "sb2b": false, "sb2c": true, "street_name": "ул. Проспект Героев" }, "geometry": { "type": "Point", "coordinates": [ 47.8308, 52.0221 ] } },
{ "type": "Feature", "properties": { "city_name": "г. Бугуруслан", "fon": "г. Бугуруслан ул. Ленинградская 39 -", "house_number": "39", "latitude": 53.654, "longitude": 52.4312, "od": "2016-09-01 00:00:00", "oid": 2024016, "on": "Бугуруслан, ул. Ленинградская 39", "pb2c": "88001000800", "pla": false, "pr": 1, "r12c": "523202", "rid": 56, "sb2b": false, "sb2c": true, "street_name": "ул. Ленинградская" }, "geometry": { "type": "Point", "coordinates": [ 52.4312, 53.654 ] } },
{ "type": "Feature", "properties": { "city_name": "п. Игра", "fon": "п. Игра ул. Советская 41 -", "house_number": "41", "latitude": 57.5387, "longitude": 53.0856, "od": "2015-09-01 00:00:00", "oid": 2024021, "on": "Игра, ул. Советская 41", "pb2c": "88001000800", "pla": false, "pr": 1, "r12c": "523704", "rid": 18, "sb2b": false, "sb2c": true, "street_name": "ул. Советская" }, "geometry": { "type": "Point", "coordinates": [ 53.0856, 57.5387 ] } },
{ "type": "Feature", "properties": { "city_name": "г. Ижевск", "fon": "г. Ижевск ул. Пушкинская 278 -", "house_number": "278", "latitude": 56.8665, "longitude": 53.2131, "od": "2015-09-01 00:00:00", "oid": 2024022, "on": "Ижевск, ул. Пушкинская 278", "pb2c": "88001000800", "pla": false, "pr": 1, "r12c": "523705", "rid": 18, "sb2b": false, "sb2c": true, "street_name": "ул. Пушкинская" }, "geometry": { "type": "Point", "coordinates": [ 53.2131, 56.8665 ] } },
{ "type": "Feature", "properties": { "city_name": "г. Тольятти", "fon": "г. Тольятти ул. Тополиная 26 -", "house_number": "26", "latitude": 53.5399, "longitude": 49.3427, "od": "2015-09-01 00:00:00", "oid": 2024026, "on": "Тольятти, ул. Тополиная 26", "pb2c": "88001000800", "pla": false, "pr": 4, "r12c": "523422", "rid": 63, "sb2b": false, "sb2c": true, "street_name": "ул. Тополиная" }, "geometry": { "type": "Point", "coordinates": [ 49.3427, 53.5399 ] } },
{ "type": "Feature", "properties": { "city_name": "г. Йошкар-Ола", "fon": "г. Йошкар-Ола ул. Пушкина 14 -", "house_number": "14", "latitude": 56.6328, "longitude": 47.895, "od": "2015-09-01 00:00:00", "oid": 2024028, "on": "Йошкар-Ола, ул. Пушкина 14", "pb2c": "88001000800", "pla": false, "pr": 2, "r12c": "523652", "rid": 12, "sb2b": false, "sb2c": true, "street_name": "ул. Пушкина" }, "geometry": { "type": "Point", "coordinates": [ 47.895, 56.6328 ] } },
{ "type": "Feature", "properties": { "city_name": "г. Красноармейск", "fon": "г. Красноармейск ул. 1 Мая 57 -", "house_number": "57", "latitude": 51.0239, "longitude": 45.6956, "od": "2015-09-01 00:00:00", "oid": 2024031, "on": "Красноармейск, ул. 1 Мая 57", "pb2c": "88001000800", "pla": false, "pr": 1, "r12c": "523514", "rid": 64, "sb2b": false, "sb2c": true, "street_name": "ул. 1 Мая" }, "geometry": { "type": "Point", "coordinates": [ 45.6956, 51.0239 ] } },
{ "type": "Feature", "properties": { "city_name": "г. Гай", "fon": "г. Гай ул. Войченко 6 -", "house_number": "6", "latitude": 51.4656, "longitude": 58.4423, "od": "2015-09-01 00:00:00", "oid": 2024033, "on": "Гай, ул. Войченко 6", "pb2c": "88001000800", "pla": false, "pr": 1, "r12c": "523204", "rid": 56, "sb2b": false, "sb2c": true, "street_name": "ул. Войченко" }, "geometry": { "type": "Point", "coordinates": [ 58.4423, 51.4656 ] } },
{ "type": "Feature", "properties": { "city_name": "г. Тольятти", "fon": "г. Тольятти ул. Самарская 68 -", "house_number": "68", "latitude": 53.5226, "longitude": 49.4185, "od": "2015-09-01 00:00:00", "oid": 2024035, "on": "Тольятти, ул. Самарская 68", "pb2c": "88001000800", "pla": false, "pr": 5, "r12c": "523412", "rid": 63, "sb2b": false, "sb2c": true, "street_name": "ул. Самарская" }, "geometry": { "type": "Point", "coordinates": [ 49.4185, 53.5226 ] } },
{ "type": "Feature", "properties": { "city_name": "г. Алатырь", "fon": "г. Алатырь ул. Московская 116 -", "house_number": "116", "latitude": 54.8394, "longitude": 46.5911, "od": "2015-09-01 00:00:00", "oid": 2024037, "on": "Алатырь, ул. Московская 116", "pb2c": "88001000800", "pla": false, "pr": 1, "r12c": "523801", "rid": 21, "sb2b": false, "sb2c": true, "street_name": "ул. Московская" }, "geometry": { "type": "Point", "coordinates": [ 46.5911, 54.8394 ] } },
{ "type": "Feature", "properties": { "city_name": "г. Шумерля", "fon": "г. Шумерля ул. Ленина 30 -", "house_number": "30", "latitude": 55.502, "longitude": 46.4009, "od": "2015-09-01 00:00:00", "oid": 2024038, "on": "Шумерля, ул. Ленина 30", "pb2c": "88001000800", "pla": false, "pr": 1, "r12c": "523808", "rid": 21, "sb2b": false, "sb2c": true, "street_name": "ул. Ленина" }, "geometry": { "type": "Point", "coordinates": [ 46.4009, 55.502 ] } },
{ "type": "Feature", "properties": { "city_name": "г. Нижний Новгород", "fon": "г. Нижний Новгород ул. Культуры 6 -", "house_number": "6", "latitude": 56.3487, "longitude": 43.8609, "od": "2015-09-01 00:00:00", "oid": 2024039, "on": "Нижний Новгород, ул. Культуры 6", "pb2c": "88001000800", "pla": false, "pr": 3, "r12c": "523112", "rid": 52, "sb2b": false, "sb2c": true, "street_name": "ул. Культуры" }, "geometry": { "type": "Point", "coordinates": [ 43.8609, 56.3487 ] } },
{ "type": "Feature", "properties": { "city_name": "г. Кирово-Чепецк", "fon": "г. Кирово-Чепецк ул. Луначарского 23 -", "house_number": "23", "latitude": 58.5429, "longitude": 50.0506, "od": "2015-09-01 00:00:00", "oid": 2024045, "on": "Кирово-Чепецк, ул. Луначарского 23", "pb2c": "88001000800", "pla": false, "pr": 1, "r12c": "523603", "rid": 43, "sb2b": false, "sb2c": true, "street_name": "ул. Луначарского" }, "geometry": { "type": "Point", "coordinates": [ 50.0506, 58.5429 ] } },
{ "type": "Feature", "properties": { "city_name": "г. Омутнинск", "fon": "г. Омутнинск ул. Свободы 26 -", "house_number": "26", "latitude": 58.6663, "longitude": 52.1721, "od": "2015-09-01 00:00:00", "oid": 2024055, "on": "Омутнинск, ул. Свободы 26", "pb2c": "88001000800", "pla": false, "pr": 1, "r12c": "523608", "rid": 43, "sb2b": false, "sb2c": true, "street_name": "ул. Свободы" }, "geometry": { "type": "Point", "coordinates": [ 52.1721, 58.6663 ] } },
{ "type": "Feature", "properties": { "city_name": "г. Слободской", "fon": "г. Слободской ул. Советская 93 -", "house_number": "93", "latitude": 58.7276, "longitude": 50.1833, "od": "2015-09-01 00:00:00", "oid": 2024062, "on": "Слободской, ул. Советская 93", "pb2c": "88001000800", "pla": false, "pr": 1, "r12c": "523605", "rid": 43, "sb2b": false, "sb2c": true, "street_name": "ул. Советская" }, "geometry": { "type": "Point", "coordinates": [ 50.1833, 58.7276 ] } },
{ "type": "Feature", "properties": { "city_name": "г. Бузулук", "fon": "г. Бузулук ул. Чапаева 8 -", "house_number": "8", "latitude": 52.7868, "longitude": 52.2612, "od": "2015-09-01 00:00:00", "oid": 2024070, "on": "Бузулук, ул. Чапаева 8", "pb2c": "88001000800", "pla": false, "pr": 1, "r12c": "523203", "rid": 56, "sb2b": false, "sb2c": true, "street_name": "ул. Чапаева" }, "geometry": { "type": "Point", "coordinates": [ 52.2612, 52.7868 ] } },
{ "type": "Feature", "properties": { "city_name": "г. Медногорск", "fon": "г. Медногорск ул. Советская 7 -", "house_number": "7", "latitude": 51.4011, "longitude": 57.5894, "od": "2015-09-01 00:00:00", "oid": 2024071, "on": "Медногорск, ул. Советская 7", "pb2c": "88001000800", "pla": false, "pr": 1, "r12c": "523206", "rid": 56, "sb2b": false, "sb2c": true, "street_name": "ул. Советская" }, "geometry": { "type": "Point", "coordinates": [ 57.5894, 51.4011 ] } },
{ "type": "Feature", "properties": { "city_name": "г. Ясный", "fon": "г. Ясный ул. Ленина 7а -", "house_number": "7а", "latitude": 51.0349, "longitude": 59.8754, "od": "2015-09-01 00:00:00", "oid": 2024073, "on": "Ясный, ул. Ленина 7а", "pb2c": "88001000800", "pla": false, "pr": 1, "r12c": "523219", "rid": 56, "sb2b": false, "sb2c": true, "street_name": "ул. Ленина" }, "geometry": { "type": "Point", "coordinates": [ 59.8754, 51.0349 ] } },
{ "type": "Feature", "properties": { "city_name": "г. Похвистнево", "fon": "г. Похвистнево ул. Революционная 14 -", "house_number": "14", "latitude": 53.653, "longitude": 52.1288, "od": "2015-09-01 00:00:00", "oid": 2024077, "on": "Похвистнево, ул. Революционная 14", "pb2c": "88001000800", "pla": false, "pr": 1, "r12c": "523406", "rid": 63, "sb2b": false, "sb2c": true, "street_name": "ул. Революционная" }, "geometry": { "type": "Point", "coordinates": [ 52.1288, 53.653 ] } },
{ "type": "Feature", "properties": { "city_name": "г. Барыш", "fon": "г. Барыш ул. Тростинского 2 -", "house_number": "2", "latitude": 53.6542, "longitude": 47.104, "od": "2015-09-01 00:00:00", "oid": 2024083, "on": "Барыш, ул. Тростинского 2", "pb2c": "88001000800", "pla": false, "pr": 1, "r12c": "523856", "rid": 73, "sb2b": false, "sb2c": true, "street_name": "ул. Тростинского" }, "geometry": { "type": "Point", "coordinates": [ 47.104, 53.6542 ] } },
{ "type": "Feature", "properties": { "city_name": "г. Инза", "fon": "г. Инза ул. Тухачевского 36 -", "house_number": "36", "latitude": 53.8579, "longitude": 46.351, "od": "2015-09-01 00:00:00", "oid": 2024085, "on": "Инза, ул. Тухачевского 36", "pb2c": "88001000800", "pla": false, "pr": 1, "r12c": "523857", "rid": 73, "sb2b": false, "sb2c": true, "street_name": "ул. Тухачевского" }, "geometry": { "type": "Point", "coordinates": [ 46.351, 53.8579 ] } },
{ "type": "Feature", "properties": { "city_name": "г. Балашиха", "fon": "г. Балашиха пр-кт Ленина 26 -", "house_number": "26", "latitude": 55.797272, "longitude": 37.949496, "od": "2015-09-01 00:00:00", "oid": 2024100, "on": "Балашиха, Ленина 26", "pb2c": "88001000800", "pla": true, "pr": 2, "r12c": "522107", "rid": 50, "sb2b": false, "sb2c": true, "street_name": "пр-кт Ленина" }, "geometry": { "type": "Point", "coordinates": [ 37.949496, 55.797272 ] } },
{ "type": "Feature", "properties": { "city_name": "г. Видное", "fon": "г. Видное ул. Советская 19 -", "house_number": "19", "latitude": 55.55029, "longitude": 37.712677, "od": "2015-09-01 00:00:00", "oid": 2024102, "on": "Видное, Советская 19", "pb2c": "88001000800", "pla": true, "pr": 2, "r12c": "522124", "rid": 50, "sb2b": false, "sb2c": true, "street_name": "ул. Советская" }, "geometry": { "type": "Point", "coordinates": [ 37.712677, 55.55029 ] } },
{ "type": "Feature", "properties": { "city_name": "г. Дмитров", "fon": "г. Дмитров ул. Пушкинская 5 -", "house_number": "5", "latitude": 56.347929, "longitude": 37.531745, "od": "2015-09-01 00:00:00", "oid": 2024105, "on": "Дмитров, Пушкинская 5", "pb2c": "88001000800", "pla": true, "pr": 2, "r12c": "522145", "rid": 50, "sb2b": false, "sb2c": true, "street_name": "ул. Пушкинская" }, "geometry": { "type": "Point", "coordinates": [ 37.531745, 56.347929 ] } },
{ "type": "Feature", "properties": { "city_name": "г. Долгопрудный", "fon": "г. Долгопрудный ул. Дирижабельная 15 -", "house_number": "15", "latitude": 55.941526, "longitude": 37.508014, "od": "2015-09-01 00:00:00", "oid": 2024106, "on": "Долгопрудный, Дирижабельная 15", "pb2c": "88001000800", "pla": false, "pr": 2, "r12c": "522146", "rid": 50, "sb2b": false, "sb2c": true, "street_name": "ул. Дирижабельная" }, "geometry": { "type": "Point", "coordinates": [ 37.508014, 55.941526 ] } },
{ "type": "Feature", "properties": { "city_name": "г. Дубна", "fon": "г. Дубна пр-кт Боголюбова 24 -", "house_number": "24", "latitude": 56.735114, "longitude": 37.155526, "od": "2015-09-01 00:00:00", "oid": 2024108, "on": "Дубна, Боголюбова 24", "pb2c": "88001000800", "pla": false, "pr": 2, "r12c": "522101", "rid": 50, "sb2b": false, "sb2c": true, "street_name": "пр-кт Боголюбова" }, "geometry": { "type": "Point", "coordinates": [ 37.155526, 56.735114 ] } },
{ "type": "Feature", "properties": { "city_name": "г. Егорьевск", "fon": "г. Егорьевск ул. Карла Маркса 69 -", "house_number": "69", "latitude": 55.377465, "longitude": 39.047599, "od": "2015-09-01 00:00:00", "oid": 2024109, "on": "Егорьевск, К. Маркса 69", "pb2c": "88001000800", "pla": false, "pr": 2, "r12c": "522102", "rid": 50, "sb2b": false, "sb2c": true, "street_name": "ул. Карла Маркса" }, "geometry": { "type": "Point", "coordinates": [ 39.047599, 55.377465 ] } },
{ "type": "Feature", "properties": { "city_name": "г Железнодорожный", "fon": "г Железнодорожный ул Маяковского 17 -", "house_number": "17", "latitude": 55.748103, "longitude": 37.994671, "od": "2015-09-01 00:00:00", "oid": 2024110, "on": "Железнодорожный, Маяковского 17", "pb2c": "88001000800", "pla": true, "pr": 2, "r12c": "522118", "rid": 50, "sb2b": false, "sb2c": true, "street_name": "ул Маяковского" }, "geometry": { "type": "Point", "coordinates": [ 37.994671, 55.748103 ] } },
{ "type": "Feature", "properties": { "city_name": "г. Жуковский", "fon": "г. Жуковский ул. Гагарина 69 -", "house_number": "69", "latitude": 55.608239, "longitude": 38.090066, "od": "2015-09-01 00:00:00", "oid": 2024111, "on": "Жуковский, Гагарина 69", "pb2c": "88001000800", "pla": false, "pr": 2, "r12c": "522103", "rid": 50, "sb2b": false, "sb2c": true, "street_name": "ул. Гагарина" }, "geometry": { "type": "Point", "coordinates": [ 38.090066, 55.608239 ] } },
{ "type": "Feature", "properties": { "city_name": "г. Истра", "fon": "г. Истра ул. Ленина 75 -", "house_number": "75", "latitude": 55.913262, "longitude": 36.858857, "od": "2015-09-01 00:00:00", "oid": 2024114, "on": "Истра, Ленина 75", "pb2c": "88001000800", "pla": true, "pr": 2, "r12c": "522105", "rid": 50, "sb2b": false, "sb2c": true, "street_name": "ул. Ленина" }, "geometry": { "type": "Point", "coordinates": [ 36.858857, 55.913262 ] } },
{ "type": "Feature", "properties": { "city_name": "г. Кашира", "fon": "г. Кашира ул. Садовая 25 -", "house_number": "25", "latitude": 54.844363, "longitude": 38.246713, "od": "2015-09-01 00:00:00", "oid": 2024116, "on": "Кашира, Садовая 25", "pb2c": "88001000800", "pla": true, "pr": 1, "r12c": "522106", "rid": 50, "sb2b": false, "sb2c": true, "street_name": "ул. Садовая" }, "geometry": { "type": "Point", "coordinates": [ 38.246713, 54.844363 ] } },
{ "type": "Feature", "properties": { "city_name": "г. Клин", "fon": "г. Клин ул. Ленинградская 10\/7 -", "house_number": "10\/7", "latitude": 56.33361, "longitude": 36.729977, "od": "2015-09-01 00:00:00", "oid": 2024117, "on": "Клин, Ленинградская 10\/7", "pb2c": "88001000800", "pla": true, "pr": 2, "r12c": "522108", "rid": 50, "sb2b": false, "sb2c": true, "street_name": "ул. Ленинградская" }, "geometry": { "type": "Point", "coordinates": [ 36.729977, 56.33361 ] } },
{ "type": "Feature", "properties": { "city_name": "г. Коломна", "fon": "г. Коломна ул. Дзержинского 98 -", "house_number": "98", "latitude": 55.083941, "longitude": 38.76484, "od": "2015-09-01 00:00:00", "oid": 2024119, "on": "Коломна, Дзержинского 98", "pb2c": "88001000800", "pla": false, "pr": 2, "r12c": "522110", "rid": 50, "sb2b": false, "sb2c": true, "street_name": "ул. Дзержинского" }, "geometry": { "type": "Point", "coordinates": [ 38.76484, 55.083941 ] } },
{ "type": "Feature", "properties": { "city_name": "г. Королев", "fon": "г. Королев ул. 50-летия ВЛКСМ 13а -", "house_number": "13а", "latitude": 55.923498, "longitude": 37.843308, "od": "2015-09-01 00:00:00", "oid": 2024120, "on": "Королев, 50 лет ВЛКСМ 13а", "pb2c": "88001000800", "pla": true, "pr": 1, "r12c": "522111", "rid": 50, "sb2b": false, "sb2c": true, "street_name": "ул. 50-летия ВЛКСМ" }, "geometry": { "type": "Point", "coordinates": [ 37.843308, 55.923498 ] } },
{ "type": "Feature", "properties": { "city_name": "г. Луховицы", "fon": "г. Луховицы ул. Жуковского 2\/8 -", "house_number": "2\/8", "latitude": 54.950044, "longitude": 39.021624, "od": "2015-09-01 00:00:00", "oid": 2024124, "on": "Луховицы, Жуковского 2\/8", "pb2c": "88001000800", "pla": false, "pr": 2, "r12c": "522113", "rid": 50, "sb2b": false, "sb2c": true, "street_name": "ул. Жуковского" }, "geometry": { "type": "Point", "coordinates": [ 39.021624, 54.950044 ] } },
{ "type": "Feature", "properties": { "city_name": "г. Люберцы", "fon": "г. Люберцы ул. Московская 17 -", "house_number": "17", "latitude": 55.67446, "longitude": 37.876546, "od": "2015-09-01 00:00:00", "oid": 2024125, "on": "Люберцы, Московская 17", "pb2c": "88001000800", "pla": true, "pr": 1, "r12c": "522114", "rid": 50, "sb2b": false, "sb2c": true, "street_name": "ул. Московская" }, "geometry": { "type": "Point", "coordinates": [ 37.876546, 55.67446 ] } },
{ "type": "Feature", "properties": { "city_name": "г. Можайск", "fon": "г. Можайск ул. 20 Января 18 -", "house_number": "18", "latitude": 55.506952, "longitude": 36.036186, "od": "2015-09-01 00:00:00", "oid": 2024126, "on": "Можайск, 20 января 18", "pb2c": "88001000800", "pla": true, "pr": 1, "r12c": "522115", "rid": 50, "sb2b": false, "sb2c": true, "street_name": "ул. 20 Января" }, "geometry": { "type": "Point", "coordinates": [ 36.036186, 55.506952 ] } },
{ "type": "Feature", "properties": { "city_name": "г. Москва", "fon": "г. Москва ул. Арбат 46 1 -", "house_number": "46 1", "latitude": 55.747994, "longitude": 37.585918, "od": "2015-09-01 00:00:00", "oid": 2024128, "on": "Москва, Арбат 46", "pb2c": "88001000800", "pla": false, "pr": 8, "r12c": "522153", "rid": 77, "sb2b": false, "sb2c": true, "street_name": "ул. Арбат" }, "geometry": { "type": "Point", "coordinates": [ 37.585918, 55.747994 ] } },
{ "type": "Feature", "properties": { "city_name": "г. Москва", "fon": "г. Москва ул. Сущёвский Вал 26 -", "house_number": "26", "latitude": 55.792388, "longitude": 37.607086, "od": "2015-09-01 00:00:00", "oid": 2024129, "on": "Москва, Сущевский вал 26", "pb2c": "88001000800", "pla": true, "pr": 9, "r12c": "522155", "rid": 77, "sb2b": false, "sb2c": true, "street_name": "ул. Сущёвский Вал" }, "geometry": { "type": "Point", "coordinates": [ 37.607086, 55.792388 ] } },
{ "type": "Feature", "properties": { "city_name": "г. Мытищи", "fon": "г. Мытищи пр-кт Олимпийский 13 5 -", "house_number": "13 5", "latitude": 55.919473, "longitude": 37.757215, "od": "2015-09-01 00:00:00", "oid": 2024132, "on": "Мытищи, Олимпийский 13\/5", "pb2c": "88001000800", "pla": true, "pr": 1, "r12c": "522117", "rid": 50, "sb2b": false, "sb2c": true, "street_name": "пр-кт Олимпийский" }, "geometry": { "type": "Point", "coordinates": [ 37.757215, 55.919473 ] } },
{ "type": "Feature", "properties": { "city_name": "г. Ногинск", "fon": "г. Ногинск ул. 3 Интернационала 74 -", "house_number": "74", "latitude": 55.854495, "longitude": 38.436506, "od": "2015-09-01 00:00:00", "oid": 2024134, "on": "Ногинск, 3 Интернационала 74", "pb2c": "88001000800", "pla": true, "pr": 1, "r12c": "522119", "rid": 50, "sb2b": false, "sb2c": true, "street_name": "ул. 3 Интернационала" }, "geometry": { "type": "Point", "coordinates": [ 38.436506, 55.854495 ] } },
{ "type": "Feature", "properties": { "city_name": "г. Одинцово", "fon": "г. Одинцово ул. Говорова 10 -", "house_number": "10", "latitude": 55.684601, "longitude": 37.286364, "od": "2015-09-01 00:00:00", "oid": 2024135, "on": "Одинцово, Говорова 10", "pb2c": "88001000800", "pla": true, "pr": 1, "r12c": "522120", "rid": 50, "sb2b": false, "sb2c": true, "street_name": "ул. Говорова" }, "geometry": { "type": "Point", "coordinates": [ 37.286364, 55.684601 ] } },
{ "type": "Feature", "properties": { "city_name": "г. Орехово-Зуево", "fon": "г. Орехово-Зуево б-р Центральный 6 -", "house_number": "6", "latitude": 55.805089, "longitude": 38.976949, "od": "2015-09-01 00:00:00", "oid": 2024137, "on": "Орехово-Зуево, Центральный бульвар 6", "pb2c": "88001000800", "pla": false, "pr": 1, "r12c": "522122", "rid": 50, "sb2b": false, "sb2c": true, "street_name": "б-р Центральный" }, "geometry": { "type": "Point", "coordinates": [ 38.976949, 55.805089 ] } },
{ "type": "Feature", "properties": { "city_name": "г. Павловский Посад", "fon": "г. Павловский Посад ул. Большая Покровская 15 -", "house_number": "15", "latitude": 55.776917, "longitude": 38.651404, "od": "2015-09-01 00:00:00", "oid": 2024138, "on": "Павловский Посад, Большая Покровская 15", "pb2c": "88001000800", "pla": true, "pr": 1, "r12c": "522123", "rid": 50, "sb2b": false, "sb2c": true, "street_name": "ул. Большая Покровская" }, "geometry": { "type": "Point", "coordinates": [ 38.651404, 55.776917 ] } },
{ "type": "Feature", "properties": { "city_name": "г. Подольск", "fon": "г. Подольск ул. Комсомольская 46 -", "house_number": "46", "latitude": 55.430688, "longitude": 37.548861, "od": "2015-09-01 00:00:00", "oid": 2024139, "on": "Подольск, Комсомольская 46", "pb2c": "88001000800", "pla": false, "pr": 1, "r12c": "522125", "rid": 50, "sb2b": false, "sb2c": true, "street_name": "ул. Комсомольская" }, "geometry": { "type": "Point", "coordinates": [ 37.548861, 55.430688 ] } },
{ "type": "Feature", "properties": { "city_name": "г. Пушкино", "fon": "г. Пушкино ул. Чехова 20 -", "house_number": "20", "latitude": 56.007091, "longitude": 37.849437, "od": "2015-09-01 00:00:00", "oid": 2024141, "on": "Пушкино, Чехова 20", "pb2c": "88001000800", "pla": false, "pr": 1, "r12c": "522127", "rid": 50, "sb2b": false, "sb2c": true, "street_name": "ул. Чехова" }, "geometry": { "type": "Point", "coordinates": [ 37.849437, 56.007091 ] } },
{ "type": "Feature", "properties": { "city_name": "г. Раменское", "fon": "г. Раменское ул. Гурьева 7 -", "house_number": "7", "latitude": 55.573529, "longitude": 38.23894, "od": "2015-09-01 00:00:00", "oid": 2024143, "on": "Раменское, Гурьева 7", "pb2c": "88001000800", "pla": true, "pr": 1, "r12c": "522128", "rid": 50, "sb2b": false, "sb2c": true, "street_name": "ул. Гурьева" }, "geometry": { "type": "Point", "coordinates": [ 38.23894, 55.573529 ] } },
{ "type": "Feature", "properties": { "city_name": "г. Реутов", "fon": "г. Реутов пр-кт Юбилейный 29 -", "house_number": "29", "latitude": 55.750322, "longitude": 37.864949, "od": "2015-09-01 00:00:00", "oid": 2024144, "on": "Реутов, Юбилейный 29", "pb2c": "88001000800", "pla": true, "pr": 1, "r12c": "522129", "rid": 50, "sb2b": false, "sb2c": true, "street_name": "пр-кт Юбилейный" }, "geometry": { "type": "Point", "coordinates": [ 37.864949, 55.750322 ] } },
{ "type": "Feature", "properties": { "city_name": "г. Руза", "fon": "г. Руза пл. Партизан 7 -", "house_number": "7", "latitude": 55.700569, "longitude": 36.194147, "od": "2015-09-01 00:00:00", "oid": 2024145, "on": "Руза, Партизан 7", "pb2c": "88001000800", "pla": false, "pr": 1, "r12c": "522130", "rid": 50, "sb2b": false, "sb2c": true, "street_name": "пл. Партизан" }, "geometry": { "type": "Point", "coordinates": [ 36.194147, 55.700569 ] } },
{ "type": "Feature", "properties": { "city_name": "г. Сергиев Посад", "fon": "г. Сергиев Посад ул. Вознесенская 53 -", "house_number": "53", "latitude": 56.303628, "longitude": 38.134296, "od": "2015-09-01 00:00:00", "oid": 2024147, "on": "Сергиев Посад, Вознесенская 53", "pb2c": "88001000800", "pla": false, "pr": 1, "r12c": "522131", "rid": 50, "sb2b": false, "sb2c": true, "street_name": "ул. Вознесенская" }, "geometry": { "type": "Point", "coordinates": [ 38.134296, 56.303628 ] } },
{ "type": "Feature", "properties": { "city_name": "г. Серпухов", "fon": "г. Серпухов ул. Революции 2\/11 -", "house_number": "2\/11", "latitude": 54.914058, "longitude": 37.41843, "od": "2015-09-01 00:00:00", "oid": 2024149, "on": "Серпухов, Революции 2\/11", "pb2c": "88001000800", "pla": false, "pr": 1, "r12c": "522133", "rid": 50, "sb2b": false, "sb2c": true, "street_name": "ул. Революции" }, "geometry": { "type": "Point", "coordinates": [ 37.41843, 54.914058 ] } },
{ "type": "Feature", "properties": { "city_name": "г. Талдом", "fon": "г. Талдом ул. Собцова 1 -", "house_number": "1", "latitude": 56.730452, "longitude": 37.528932, "od": "2015-09-01 00:00:00", "oid": 2024151, "on": "Талдом, Собцова 1", "pb2c": "88001000800", "pla": true, "pr": 1, "r12c": "522136", "rid": 50, "sb2b": false, "sb2c": true, "street_name": "ул. Собцова" }, "geometry": { "type": "Point", "coordinates": [ 37.528932, 56.730452 ] } },
{ "type": "Feature", "properties": { "city_name": "г. Чехов", "fon": "г. Чехов ул. Полиграфистов 6 -", "house_number": "6", "latitude": 55.155075, "longitude": 37.468024, "od": "2015-09-01 00:00:00", "oid": 2024155, "on": "Чехов, Полиграфистов 6", "pb2c": "88001000800", "pla": false, "pr": 1, "r12c": "522140", "rid": 50, "sb2b": false, "sb2c": true, "street_name": "ул. Полиграфистов" }, "geometry": { "type": "Point", "coordinates": [ 37.468024, 55.155075 ] } },
{ "type": "Feature", "properties": { "city_name": "г. Шатура", "fon": "г. Шатура пр-кт Ильича 12 -", "house_number": "12", "latitude": 55.575385, "longitude": 39.547348, "od": "2015-09-01 00:00:00", "oid": 2024156, "on": "Шатура, Ильича 12", "pb2c": "88001000800", "pla": true, "pr": 1, "r12c": "522141", "rid": 50, "sb2b": false, "sb2c": true, "street_name": "пр-кт Ильича" }, "geometry": { "type": "Point", "coordinates": [ 39.547348, 55.575385 ] } },
{ "type": "Feature", "properties": { "city_name": "г. Щелково", "fon": "г. Щелково ул. Талсинская 7 -", "house_number": "7", "latitude": 55.925524, "longitude": 37.99156, "od": "2015-09-01 00:00:00", "oid": 2024157, "on": "Щелково, Талсинская 7", "pb2c": "88001000800", "pla": false, "pr": 1, "r12c": "522143", "rid": 50, "sb2b": false, "sb2c": true, "street_name": "ул. Талсинская" }, "geometry": { "type": "Point", "coordinates": [ 37.99156, 55.925524 ] } },
{ "type": "Feature", "properties": { "city_name": "г. Электросталь", "fon": "г. Электросталь ул. Мира 27 -", "house_number": "27", "latitude": 55.772426, "longitude": 38.447957, "od": "2015-09-01 00:00:00", "oid": 2024158, "on": "Электросталь, Мира 27", "pb2c": "88001000800", "pla": true, "pr": 1, "r12c": "522144", "rid": 50, "sb2b": false, "sb2c": true, "street_name": "ул. Мира" }, "geometry": { "type": "Point", "coordinates": [ 38.447957, 55.772426 ] } },
{ "type": "Feature", "properties": { "city_name": "г. Владивосток", "fon": "г. Владивосток ул. Черемуховая 9 -", "house_number": "9", "latitude": 43.098992, "longitude": 131.904094, "od": "2015-04-01 00:00:00", "oid": 2024165, "on": "Владивосток, ул. Черемуховая 9", "pb2c": "88001000800", "pla": false, "pr": 8, "r12c": "527506", "rid": 25, "sb2b": false, "sb2c": true, "street_name": "ул. Черемуховая" }, "geometry": { "type": "Point", "coordinates": [ 131.904094, 43.098992 ] } },
{ "type": "Feature", "properties": { "city_name": "г. Находка", "fon": "г. Находка ул. Ленинская 1 -", "house_number": "1", "latitude": 42.809859, "longitude": 132.871401, "od": "2015-04-01 00:00:00", "oid": 2024171, "on": "Находка, ул. Ленинская 1", "pb2c": "88001000800", "pla": false, "pr": 4, "r12c": "527516", "rid": 25, "sb2b": false, "sb2c": true, "street_name": "ул. Ленинская" }, "geometry": { "type": "Point", "coordinates": [ 132.871401, 42.809859 ] } },
{ "type": "Feature", "properties": { "city_name": "г. Партизанск", "fon": "г. Партизанск ул. Центральная 1 -", "house_number": "1", "latitude": 43.114305, "longitude": 133.115144, "od": "2015-04-01 00:00:00", "oid": 2024172, "on": "Партизанск, ул. Центральная 1", "pb2c": "88001000800", "pla": false, "pr": 1, "r12c": "527518", "rid": 25, "sb2b": false, "sb2c": true, "street_name": "ул. Центральная" }, "geometry": { "type": "Point", "coordinates": [ 133.115144, 43.114305 ] } },
{ "type": "Feature", "properties": { "city_name": "г. Петропавловск-Камчатский", "fon": "г. Петропавловск-Камчатский ул. Владивостокская 9 -", "house_number": "9", "latitude": 53.04582, "longitude": 158.65378, "od": "2015-04-01 00:00:00", "oid": 2024175, "on": "Петропавловск-Камчатский, ул. Владивостокская 9", "pb2c": "88001000800", "pla": false, "pr": 8, "r12c": "527307", "rid": 41, "sb2b": false, "sb2c": true, "street_name": "ул. Владивостокская" }, "geometry": { "type": "Point", "coordinates": [ 158.65378, 53.04582 ] } },
{ "type": "Feature", "properties": { "city_name": "г. Нюрба", "fon": "г. Нюрба ул. Степана Васильева 77 -", "house_number": "77", "latitude": 63.283967, "longitude": 118.346068, "od": "2015-04-01 00:00:00", "oid": 2024177, "on": "Нюрба, ул. Степана Васильева 77", "pb2c": "88001000800", "pla": false, "pr": 1, "r12c": "527618", "rid": 14, "sb2b": false, "sb2c": true, "street_name": "ул. Степана Васильева" }, "geometry": { "type": "Point", "coordinates": [ 118.346068, 63.283967 ] } },
{ "type": "Feature", "properties": { "city_name": "г. Арсеньев", "fon": "г. Арсеньев ул. Ленинская 45 -", "house_number": "45", "latitude": 44.166771, "longitude": 133.267793, "od": "2015-04-01 00:00:00", "oid": 2024182, "on": "Арсеньев, ул. Ленинская 45", "pb2c": "88001000800", "pla": false, "pr": 1, "r12c": "527501", "rid": 25, "sb2b": false, "sb2c": true, "street_name": "ул. Ленинская" }, "geometry": { "type": "Point", "coordinates": [ 133.267793, 44.166771 ] } },
{ "type": "Feature", "properties": { "city_name": "пгт. Пограничный", "fon": "пгт. Пограничный ул. Гагарина 12 -", "house_number": "12", "latitude": 44.410332, "longitude": 131.375978, "od": "2015-04-01 00:00:00", "oid": 2024183, "on": "Пограничный, ул. Гагарина 12", "pb2c": "88001000800", "pla": false, "pr": 1, "r12c": "527519", "rid": 25, "sb2b": false, "sb2c": true, "street_name": "ул. Гагарина" }, "geometry": { "type": "Point", "coordinates": [ 131.375978, 44.410332 ] } },
{ "type": "Feature", "properties": { "city_name": "г. Алдан", "fon": "г. Алдан ул. Ленина 20 -", "house_number": "20", "latitude": 58.608902, "longitude": 125.388096, "od": "2015-04-01 00:00:00", "oid": 2024198, "on": "Алдан, ул. Ленина 20", "pb2c": "88001000800", "pla": false, "pr": 2, "r12c": "527601", "rid": 14, "sb2b": false, "sb2c": true, "street_name": "ул. Ленина" }, "geometry": { "type": "Point", "coordinates": [ 125.388096, 58.608902 ] } },
{ "type": "Feature", "properties": { "city_name": "г. Якутск", "fon": "г. Якутск ул. Курашова 22 -", "house_number": "22", "latitude": 62.03153, "longitude": 129.73994, "od": "2015-04-01 00:00:00", "oid": 2024199, "on": "Якутск, ул. Курашова 22", "pb2c": "88001000800", "pla": false, "pr": 1, "r12c": "527633", "rid": 14, "sb2b": false, "sb2c": true, "street_name": "ул. Курашова" }, "geometry": { "type": "Point", "coordinates": [ 129.73994, 62.03153 ] } },
{ "type": "Feature", "properties": { "city_name": "пгт. Славянка", "fon": "пгт. Славянка ул. Молодежная 3 -", "house_number": "3", "latitude": 42.859811, "longitude": 131.393225, "od": "2015-04-01 00:00:00", "oid": 2024206, "on": "Славянка, ул. Молодежная 3", "pb2c": "88001000800", "pla": false, "pr": 1, "r12c": "527520", "rid": 25, "sb2b": false, "sb2c": true, "street_name": "ул. Молодежная" }, "geometry": { "type": "Point", "coordinates": [ 131.393225, 42.859811 ] } },
{ "type": "Feature", "properties": { "city_name": "г. Дальнереченск", "fon": "г. Дальнереченск ул. Победы 15 -", "house_number": "15", "latitude": 45.93051, "longitude": 133.72716, "od": "2015-04-01 00:00:00", "oid": 2024215, "on": "Дальнереченск, ул. Победы 15", "pb2c": "88001000800", "pla": false, "pr": 2, "r12c": "527509", "rid": 25, "sb2b": false, "sb2c": true, "street_name": "ул. Победы" }, "geometry": { "type": "Point", "coordinates": [ 133.72716, 45.93051 ] } },
{ "type": "Feature", "properties": { "city_name": "г. Мирный", "fon": "г. Мирный ул. Ойунского 39 -", "house_number": "39", "latitude": 62.542023, "longitude": 113.972985, "od": "2015-04-01 00:00:00", "oid": 2024220, "on": "Мирный, ул. Ойунского 39", "pb2c": "88001000800", "pla": false, "pr": 1, "r12c": "527615", "rid": 14, "sb2b": false, "sb2c": true, "street_name": "ул. Ойунского" }, "geometry": { "type": "Point", "coordinates": [ 113.972985, 62.542023 ] } },
{ "type": "Feature", "properties": { "city_name": "г. Спасск-Дальний", "fon": "г. Спасск-Дальний ул. Борисова 26 -", "house_number": "26", "latitude": 44.59898, "longitude": 132.815378, "od": "2015-04-01 00:00:00", "oid": 2024226, "on": "Спасск-Дальний, ул. Борисова 26", "pb2c": "88001000800", "pla": false, "pr": 1, "r12c": "527521", "rid": 25, "sb2b": false, "sb2c": true, "street_name": "ул. Борисова" }, "geometry": { "type": "Point", "coordinates": [ 132.815378, 44.59898 ] } },
{ "type": "Feature", "properties": { "city_name": "г. Владивосток", "fon": "г. Владивосток пр-кт 100-летия Владивостока 38а -", "house_number": "38а", "latitude": 43.150995, "longitude": 131.909244, "od": "2015-04-01 00:00:00", "oid": 2024232, "on": "Владивосток, пр-кт 100-летия Владивостока 38а", "pb2c": "88001000800", "pla": false, "pr": 10, "r12c": "527505", "rid": 25, "sb2b": false, "sb2c": true, "street_name": "пр-кт 100-летия Владивостока" }, "geometry": { "type": "Point", "coordinates": [ 131.909244, 43.150995 ] } },
{ "type": "Feature", "properties": { "city_name": "г. Вилюйск", "fon": "г. Вилюйск ул. Ленина 47 -", "house_number": "47", "latitude": 63.754898, "longitude": 121.62498, "od": "2015-04-01 00:00:00", "oid": 2024233, "on": "Вилюйск, ул. Ленина 47", "pb2c": "88001000800", "pla": false, "pr": 1, "r12c": "527609", "rid": 14, "sb2b": false, "sb2c": true, "street_name": "ул. Ленина" }, "geometry": { "type": "Point", "coordinates": [ 121.62498, 63.754898 ] } },
{ "type": "Feature", "properties": { "city_name": "с. Верхневилюйск", "fon": "с. Верхневилюйск ул. Советская 10 -", "house_number": "10", "latitude": 63.443588, "longitude": 120.319713, "od": "2015-04-01 00:00:00", "oid": 2024234, "on": "Верхневилюйск, ул. Советская 10", "pb2c": "88001000800", "pla": false, "pr": 1, "r12c": "527608", "rid": 14, "sb2b": false, "sb2c": true, "street_name": "ул. Советская" }, "geometry": { "type": "Point", "coordinates": [ 120.319713, 63.443588 ] } },
{ "type": "Feature", "properties": { "city_name": "г. Дальнегорск", "fon": "г. Дальнегорск пр-кт 50 лет Октября 122 -", "house_number": "122", "latitude": 44.558289, "longitude": 135.57686, "od": "2015-04-01 00:00:00", "oid": 2024241, "on": "Дальнегорск, пр-кт 50 лет Октября 122", "pb2c": "88001000800", "pla": false, "pr": 3, "r12c": "527508", "rid": 25, "sb2b": false, "sb2c": true, "street_name": "пр-кт 50 лет Октября" }, "geometry": { "type": "Point", "coordinates": [ 135.57686, 44.558289 ] } },
{ "type": "Feature", "properties": { "city_name": "г. Артем", "fon": "г. Артем ул. Амурская 40 -", "house_number": "40", "latitude": 43.354554, "longitude": 132.169891, "od": "2015-04-01 00:00:00", "oid": 2024249, "on": "Артем, ул. Амурская 40", "pb2c": "88001000800", "pla": false, "pr": 2, "r12c": "527502", "rid": 25, "sb2b": false, "sb2c": true, "street_name": "ул. Амурская" }, "geometry": { "type": "Point", "coordinates": [ 132.169891, 43.354554 ] } },
{ "type": "Feature", "properties": { "city_name": "пгт. Лучегорск", "fon": "пгт. Лучегорск мкр. 4-й 1 -", "house_number": "1", "latitude": 46.444018, "longitude": 134.302782, "od": "2015-04-01 00:00:00", "oid": 2024250, "on": "Лучегорск, мкр. 4-й 1", "pb2c": "88001000800", "pla": false, "pr": 1, "r12c": "527515", "rid": 25, "sb2b": false, "sb2c": true, "street_name": "мкр. 4-й" }, "geometry": { "type": "Point", "coordinates": [ 134.302782, 46.444018 ] } },
{ "type": "Feature", "properties": { "city_name": "г. Алексеевка", "fon": "г. Алексеевка ул. Победы 20 -", "house_number": "20", "latitude": 50.633369, "longitude": 38.676818, "od": "2015-09-01 00:00:00", "oid": 2024253, "on": "Алексеевка, ул. Победы", "pb2c": "88001000800", "pla": false, "pr": 1, "r12c": "522401", "rid": 31, "sb2b": false, "sb2c": true, "street_name": "ул. Победы" }, "geometry": { "type": "Point", "coordinates": [ 38.676818, 50.633369 ] } },
{ "type": "Feature", "properties": { "city_name": "г. Белгород", "fon": "г. Белгород пр-кт Б.Хмельницкого 81", "house_number": "81", "latitude": 50.599247, "longitude": 36.579796, "od": "2015-09-01 00:00:00", "oid": 2024254, "on": "Белгород, пр.Б.Хмельницкого", "pb2c": "88001000800", "pla": false, "pr": 4, "r12c": "522402", "rid": 31, "sb2b": false, "sb2c": true, "street_name": "пр-кт Б.Хмельницкого" }, "geometry": { "type": "Point", "coordinates": [ 36.579796, 50.599247 ] } },
{ "type": "Feature", "properties": { "city_name": "г. Брянск", "fon": "г. Брянск пр-кт Ленина 47 -", "house_number": "47", "latitude": 53.246086, "longitude": 34.36635, "od": "2015-09-01 00:00:00", "oid": 2024255, "on": "Брянск, пр.Ленина, д. 47", "pb2c": "88001000800", "pla": false, "pr": 4, "r12c": "522451", "rid": 32, "sb2b": false, "sb2c": true, "street_name": "пр-кт Ленина" }, "geometry": { "type": "Point", "coordinates": [ 34.36635, 53.246086 ] } },
{ "type": "Feature", "properties": { "city_name": "г. Ковров", "fon": "г. Ковров ул. Грибоедова 22 -", "house_number": "22", "latitude": 56.354689, "longitude": 41.328002, "od": "2015-09-01 00:00:00", "oid": 2024256, "on": "Ковров, ул. Грибоедова", "pb2c": "88001000800", "pla": true, "pr": 2, "r12c": "522306", "rid": 33, "sb2b": false, "sb2c": true, "street_name": "ул. Грибоедова" }, "geometry": { "type": "Point", "coordinates": [ 41.328002, 56.354689 ] } },
{ "type": "Feature", "properties": { "city_name": "г. Муром", "fon": "г. Муром ул. Льва Толстого 16 -", "house_number": "16", "latitude": 55.576421, "longitude": 42.050821, "od": "2015-09-01 00:00:00", "oid": 2024263, "on": "Муром, ул. Л.Толстого", "pb2c": "88001000800", "pla": true, "pr": 2, "r12c": "522308", "rid": 33, "sb2b": false, "sb2c": true, "street_name": "ул. Льва Толстого" }, "geometry": { "type": "Point", "coordinates": [ 42.050821, 55.576421 ] } },
{ "type": "Feature", "properties": { "city_name": "г. Владимир", "fon": "г. Владимир ул. Гороховая 20 -", "house_number": "20", "latitude": 56.13626, "longitude": 40.395977, "od": "2015-09-01 00:00:00", "oid": 2024264, "on": "Владимир, ул. Гороховая", "pb2c": "88001000800", "pla": true, "pr": 3, "r12c": "522302", "rid": 33, "sb2b": false, "sb2c": true, "street_name": "ул. Гороховая" }, "geometry": { "type": "Point", "coordinates": [ 40.395977, 56.13626 ] } },
{ "type": "Feature", "properties": { "city_name": "г. Гусь-Хрустальный", "fon": "г. Гусь-Хрустальный ул. Октябрьская 21а -", "house_number": "21а", "latitude": 55.614665, "longitude": 40.675625, "od": "2015-09-01 00:00:00", "oid": 2024266, "on": "Гусь-Хрустальный, ул. Октябрьская", "pb2c": "88001000800", "pla": false, "pr": 2, "r12c": "522304", "rid": 33, "sb2b": false, "sb2c": true, "street_name": "ул. Октябрьская" }, "geometry": { "type": "Point", "coordinates": [ 40.675625, 55.614665 ] } },
{ "type": "Feature", "properties": { "city_name": "г. Воронеж", "fon": "г. Воронеж пр-кт Революции 35 -", "house_number": "35", "latitude": 51.667744, "longitude": 39.207394, "od": "2015-09-01 00:00:00", "oid": 2024270, "on": "Воронеж, пр-т Революции 35", "pb2c": "88001000800", "pla": false, "pr": 6, "r12c": "522205", "rid": 36, "sb2b": false, "sb2c": true, "street_name": "пр-кт Революции" }, "geometry": { "type": "Point", "coordinates": [ 39.207394, 51.667744 ] } },
{ "type": "Feature", "properties": { "city_name": "г. Иваново", "fon": "г. Иваново ул. 10 Августа 1 -", "house_number": "1", "latitude": 56.999225, "longitude": 40.97835, "od": "2015-09-01 00:00:00", "oid": 2024285, "on": "Иваново, ул. 10 Августа", "pb2c": "88001000800", "pla": true, "pr": 4, "r12c": "522312", "rid": 37, "sb2b": false, "sb2c": true, "street_name": "ул. 10 Августа" }, "geometry": { "type": "Point", "coordinates": [ 40.97835, 56.999225 ] } },
{ "type": "Feature", "properties": { "city_name": "г. Вичуга", "fon": "г. Вичуга ул. 50 лет Октября 8 -", "house_number": "8", "latitude": 57.217962, "longitude": 41.936466, "od": "2015-09-01 00:00:00", "oid": 2024286, "on": "Вичуга, ул. 50 лет октября", "pb2c": "88001000800", "pla": false, "pr": 1, "r12c": "522314", "rid": 37, "sb2b": false, "sb2c": true, "street_name": "ул. 50 лет Октября" }, "geometry": { "type": "Point", "coordinates": [ 41.936466, 57.217962 ] } },
{ "type": "Feature", "properties": { "city_name": "г. Обнинск", "fon": "г. Обнинск пр-кт Ленина 123 -", "house_number": "123", "latitude": 55.108761, "longitude": 36.589832, "od": "2015-09-01 00:00:00", "oid": 2024291, "on": "Обнинск, ул. Ленина", "pb2c": "88001000800", "pla": true, "pr": 2, "r12c": "522506", "rid": 40, "sb2b": false, "sb2c": true, "street_name": "пр-кт Ленина" }, "geometry": { "type": "Point", "coordinates": [ 36.589832, 55.108761 ] } },
{ "type": "Feature", "properties": { "city_name": "г. Калуга", "fon": "г. Калуга ул. Достоевского 39 -", "house_number": "39", "latitude": 54.511743, "longitude": 36.254647, "od": "2015-09-01 00:00:00", "oid": 2024292, "on": "Калуга, ул. Достоевского 39", "pb2c": "88001000800", "pla": false, "pr": 3, "r12c": "522501", "rid": 40, "sb2b": false, "sb2c": true, "street_name": "ул. Достоевского" }, "geometry": { "type": "Point", "coordinates": [ 36.254647, 54.511743 ] } },
{ "type": "Feature", "properties": { "city_name": "г. Шарья", "fon": "г. Шарья ул. Ольги Степановой 60 -", "house_number": "60", "latitude": 58.367348, "longitude": 45.514812, "od": "2015-09-01 00:00:00", "oid": 2024295, "on": "Шарья, ул. О.Степановой", "pb2c": "88001000800", "pla": false, "pr": 1, "r12c": "522954", "rid": 44, "sb2b": false, "sb2c": true, "street_name": "ул. Ольги Степановой" }, "geometry": { "type": "Point", "coordinates": [ 45.514812, 58.367348 ] } },
{ "type": "Feature", "properties": { "city_name": "г. Грязи", "fon": "г. Грязи ул. Советская 63 -", "house_number": "63", "latitude": 52.491985, "longitude": 39.96167, "od": "2015-09-01 00:00:00", "oid": 2024303, "on": "Грязи, ул. Советская", "pb2c": "88001000800", "pla": true, "pr": 1, "r12c": "522601", "rid": 48, "sb2b": false, "sb2c": true, "street_name": "ул. Советская" }, "geometry": { "type": "Point", "coordinates": [ 39.96167, 52.491985 ] } },
{ "type": "Feature", "properties": { "city_name": "г. Липецк", "fon": "г. Липецк ул. Валентины Терешковой 35а -", "house_number": "35а", "latitude": 52.612091, "longitude": 39.574013, "od": "2015-09-01 00:00:00", "oid": 2024304, "on": "Липецк, ул. Терешковой", "pb2c": "88001000800", "pla": true, "pr": 5, "r12c": "522604", "rid": 48, "sb2b": false, "sb2c": true, "street_name": "ул. Валентины Терешковой" }, "geometry": { "type": "Point", "coordinates": [ 39.574013, 52.612091 ] } },
{ "type": "Feature", "properties": { "city_name": "г. Елец", "fon": "г. Елец ул. Ленина 80а -", "house_number": "80а", "latitude": 52.623856, "longitude": 38.497986, "od": "2015-09-01 00:00:00", "oid": 2024305, "on": "Елец, ул. Ленина", "pb2c": "88001000800", "pla": false, "pr": 2, "r12c": "522602", "rid": 48, "sb2b": false, "sb2c": true, "street_name": "ул. Ленина" }, "geometry": { "type": "Point", "coordinates": [ 38.497986, 52.623856 ] } },
{ "type": "Feature", "properties": { "city_name": "г. Орёл", "fon": "г. Орёл ул. Ленина 43 -", "house_number": "43", "latitude": 52.970333, "longitude": 36.062499, "od": "2015-09-01 00:00:00", "oid": 2024307, "on": "Орел, ул. Ленина 43", "pb2c": "88001000800", "pla": true, "pr": 1, "r12c": "522653", "rid": 57, "sb2b": false, "sb2c": true, "street_name": "ул. Ленина" }, "geometry": { "type": "Point", "coordinates": [ 36.062499, 52.970333 ] } },
{ "type": "Feature", "properties": { "city_name": "г. Ливны", "fon": "г. Ливны ул. Максима Горького 8 -", "house_number": "8", "latitude": 52.426901, "longitude": 37.60487, "od": "2015-09-01 00:00:00", "oid": 2024308, "on": "Ливны, ул. Горького 8", "pb2c": "88001000800", "pla": false, "pr": 1, "r12c": "522651", "rid": 57, "sb2b": false, "sb2c": true, "street_name": "ул. Максима Горького" }, "geometry": { "type": "Point", "coordinates": [ 37.60487, 52.426901 ] } },
{ "type": "Feature", "properties": { "city_name": "г. Мценск", "fon": "г. Мценск ул. Мира 37 -", "house_number": "37", "latitude": 53.279123, "longitude": 36.576791, "od": "2015-09-01 00:00:00", "oid": 2024309, "on": "Мценск, ул. Мира 37", "pb2c": "88001000800", "pla": false, "pr": 1, "r12c": "522652", "rid": 57, "sb2b": false, "sb2c": true, "street_name": "ул. Мира" }, "geometry": { "type": "Point", "coordinates": [ 36.576791, 53.279123 ] } },
{ "type": "Feature", "properties": { "city_name": "г. Смоленск", "fon": "г. Смоленск ул. Нормандия-Неман 25 -", "house_number": "25", "latitude": 54.77709, "longitude": 32.016343, "od": "2015-09-01 00:00:00", "oid": 2024310, "on": "Смоленск, Нормандия-Неман", "pb2c": "88001000800", "pla": true, "pr": 3, "r12c": "522758", "rid": 67, "sb2b": false, "sb2c": true, "street_name": "ул. Нормандия-Неман" }, "geometry": { "type": "Point", "coordinates": [ 32.016343, 54.77709 ] } },
{ "type": "Feature", "properties": { "city_name": "г. Тверь", "fon": "г. Тверь ул. Советская 31 -", "house_number": "31", "latitude": 56.858458, "longitude": 35.92054, "od": "2015-09-01 00:00:00", "oid": 2024313, "on": "Тверь, Советская", "pb2c": "88001000800", "pla": true, "pr": 3, "r12c": "522860", "rid": 69, "sb2b": false, "sb2c": true, "street_name": "ул. Советская" }, "geometry": { "type": "Point", "coordinates": [ 35.92054, 56.858458 ] } },
{ "type": "Feature", "properties": { "city_name": "г. Богородицк", "fon": "г. Богородицк ул. Коммунаров 73 -", "house_number": "73", "latitude": 53.77287, "longitude": 38.130634, "od": "2015-09-01 00:00:00", "oid": 2024314, "on": "Богородицк, ул. Коммунаров", "pb2c": "88001000800", "pla": false, "pr": 1, "r12c": "522903", "rid": 71, "sb2b": false, "sb2c": true, "street_name": "ул. Коммунаров" }, "geometry": { "type": "Point", "coordinates": [ 38.130634, 53.77287 ] } },
{ "type": "Feature", "properties": { "city_name": "г. Тула", "fon": "г. Тула пр-кт Ленина 33 -", "house_number": "33", "latitude": 54.188727, "longitude": 37.614001, "od": "2015-09-01 00:00:00", "oid": 2024316, "on": "Тула, пр. Ленина", "pb2c": "88001000800", "pla": false, "pr": 2, "r12c": "522911", "rid": 71, "sb2b": false, "sb2c": true, "street_name": "пр-кт Ленина" }, "geometry": { "type": "Point", "coordinates": [ 37.614001, 54.188727 ] } },
{ "type": "Feature", "properties": { "city_name": "г. Ярославль", "fon": "г. Ярославль ул. Панина 46 -", "house_number": "46", "latitude": 57.68709, "longitude": 39.76655, "od": "2015-09-01 00:00:00", "oid": 2024317, "on": "Ярославль, ул. Панина", "pb2c": "88001000800", "pla": false, "pr": 4, "r12c": "522961", "rid": 76, "sb2b": false, "sb2c": true, "street_name": "ул. Панина" }, "geometry": { "type": "Point", "coordinates": [ 39.76655, 57.68709 ] } },
{ "type": "Feature", "properties": { "city_name": "г. Переславль-Залесский", "fon": "г. Переславль-Залесский ул. Ростовская 20 -", "house_number": "20", "latitude": 56.741337, "longitude": 38.856865, "od": "2015-09-01 00:00:00", "oid": 2024319, "on": "Переславль-Залесский, ул. Ростовская", "pb2c": "88001000800", "pla": false, "pr": 1, "r12c": "522955", "rid": 76, "sb2b": false, "sb2c": true, "street_name": "ул. Ростовская" }, "geometry": { "type": "Point", "coordinates": [ 38.856865, 56.741337 ] } },
{ "type": "Feature", "properties": { "city_name": "г. Харабали", "fon": "г. Харабали ул. Ленина 31 -", "house_number": "31", "latitude": 47.402311, "longitude": 47.250465, "od": "2015-07-01 00:00:00", "oid": 2024322, "on": "Харабали, ул. Ленина 31", "pb2c": "88001000800", "pla": false, "pr": 1, "r12c": "524113", "rid": 30, "sb2b": false, "sb2c": true, "street_name": "ул. Ленина" }, "geometry": { "type": "Point", "coordinates": [ 47.250465, 47.402311 ] } },
{ "type": "Feature", "properties": { "city_name": "с. Красный Яр", "fon": "с. Красный Яр ул. Аристова 54 -", "house_number": "54", "latitude": 46.53464, "longitude": 48.339485, "od": "2015-07-01 00:00:00", "oid": 2024333, "on": "Красный Яр, ул. Аристова 54", "pb2c": "88001000800", "pla": false, "pr": 1, "r12c": "524101", "rid": 30, "sb2b": false, "sb2c": true, "street_name": "ул. Аристова" }, "geometry": { "type": "Point", "coordinates": [ 48.339485, 46.53464 ] } },
{ "type": "Feature", "properties": { "city_name": "г. Астрахань", "fon": "г. Астрахань ул. Чернышевского 10 10", "house_number": "10", "latitude": 46.34861, "longitude": 48.03754, "od": "2015-07-01 00:00:00", "oid": 2024344, "on": "Астрахань, ул. Чернышевского 10", "pb2c": "88001000800", "pla": false, "pr": 7, "r12c": "524109", "rid": 30, "sb2b": false, "sb2c": true, "street_name": "ул. Чернышевского" }, "geometry": { "type": "Point", "coordinates": [ 48.03754, 46.34861 ] } },
{ "type": "Feature", "properties": { "city_name": "с. Икряное", "fon": "с. Икряное ул. Мира 19 -", "house_number": "19", "latitude": 47.724376, "longitude": 46.101612, "od": "2015-07-01 00:00:00", "oid": 2024347, "on": "Икряное, ул. Мира 19", "pb2c": "88001000800", "pla": false, "pr": 1, "r12c": "524107", "rid": 30, "sb2b": false, "sb2c": true, "street_name": "ул. Мира" }, "geometry": { "type": "Point", "coordinates": [ 46.101612, 47.724376 ] } },
{ "type": "Feature", "properties": { "city_name": "рп. Лиман", "fon": "рп. Лиман пер. Садовый 2 -", "house_number": "2", "latitude": 45.784817, "longitude": 47.23064, "od": "2015-07-01 00:00:00", "oid": 2024348, "on": "Лиман, пер. Садовый 2", "pb2c": "88001000800", "pla": false, "pr": 1, "r12c": "524108", "rid": 30, "sb2b": false, "sb2c": true, "street_name": "пер. Садовый" }, "geometry": { "type": "Point", "coordinates": [ 47.23064, 45.784817 ] } },
{ "type": "Feature", "properties": { "city_name": "г. Знаменск", "fon": "г. Знаменск пр-кт 9 Мая 53 -", "house_number": "53", "latitude": 48.58603, "longitude": 45.723915, "od": "2015-07-01 00:00:00", "oid": 2024349, "on": "Знаменск, пр-кт 9 Мая 53", "pb2c": "88001000800", "pla": false, "pr": 1, "r12c": "524104", "rid": 30, "sb2b": false, "sb2c": true, "street_name": "пр-кт 9 Мая" }, "geometry": { "type": "Point", "coordinates": [ 45.723915, 48.58603 ] } },
{ "type": "Feature", "properties": { "city_name": "г. Волжский", "fon": "г. Волжский пр-кт Дружбы 42 -", "house_number": "42", "latitude": 48.768665, "longitude": 44.79367, "od": "2015-07-01 00:00:00", "oid": 2024352, "on": "Волжский, пр-кт Дружбы 42", "pb2c": "88001000800", "pla": false, "pr": 1, "r12c": "524202", "rid": 34, "sb2b": false, "sb2c": true, "street_name": "пр-кт Дружбы" }, "geometry": { "type": "Point", "coordinates": [ 44.79367, 48.768665 ] } },
{ "type": "Feature", "properties": { "city_name": "г. Волгоград", "fon": "г. Волгоград ул. Рабоче-Крестьянская 25 -", "house_number": "25", "latitude": 48.6932, "longitude": 44.4945, "od": "2015-07-01 00:00:00", "oid": 2024364, "on": "Волгоград, ул. Рабоче-Крестьянская 25", "pb2c": "88001000800", "pla": false, "pr": 14, "r12c": "524243", "rid": 34, "sb2b": false, "sb2c": true, "street_name": "ул. Рабоче-Крестьянская" }, "geometry": { "type": "Point", "coordinates": [ 44.4945, 48.6932 ] } },
{ "type": "Feature", "properties": { "city_name": "г. Волгоград", "fon": "г. Волгоград пр-кт им Героев Сталинграда 10 -", "house_number": "10", "latitude": 48.5164614, "longitude": 44.5634151, "od": "2015-07-01 00:00:00", "oid": 2024365, "on": "Волгоград, пр-кт им Героев Сталинграда 10", "pb2c": "88001000800", "pla": false, "pr": 9, "r12c": "524244", "rid": 34, "sb2b": false, "sb2c": true, "street_name": "пр-кт им Героев Сталинграда" }, "geometry": { "type": "Point", "coordinates": [ 44.5634151, 48.5164614 ] } },
{ "type": "Feature", "properties": { "city_name": "г. Жирновск", "fon": "г. Жирновск ул. Ломоносова 54 -", "house_number": "54", "latitude": 50.97527, "longitude": 44.778347, "od": "2015-07-01 00:00:00", "oid": 2024367, "on": "Жирновск, ул. Ломоносова 54", "pb2c": "88001000800", "pla": false, "pr": 1, "r12c": "524211", "rid": 34, "sb2b": false, "sb2c": true, "street_name": "ул. Ломоносова" }, "geometry": { "type": "Point", "coordinates": [ 44.778347, 50.97527 ] } },
{ "type": "Feature", "properties": { "city_name": "г. Волгоград", "fon": "г. Волгоград ул. Мира 16 -", "house_number": "16", "latitude": 48.710037, "longitude": 44.516968, "od": "2015-07-01 00:00:00", "oid": 2024368, "on": "Волгоград, ул. Мира 16", "pb2c": "88001000800", "pla": true, "pr": 13, "r12c": "524207", "rid": 34, "sb2b": false, "sb2c": true, "street_name": "ул. Мира" }, "geometry": { "type": "Point", "coordinates": [ 44.516968, 48.710037 ] } },
{ "type": "Feature", "properties": { "city_name": "г. Ленинск", "fon": "г. Ленинск ул. Им Ленина 204б -", "house_number": "204б", "latitude": 48.695374, "longitude": 45.196182, "od": "2015-07-01 00:00:00", "oid": 2024371, "on": "Ленинск, ул. Им Ленина 204б", "pb2c": "88001000800", "pla": false, "pr": 1, "r12c": "524657", "rid": 34, "sb2b": false, "sb2c": true, "street_name": "ул. Им Ленина" }, "geometry": { "type": "Point", "coordinates": [ 45.196182, 48.695374 ] } },
{ "type": "Feature", "properties": { "city_name": "г. Михайловка", "fon": "г. Михайловка ул. Ленина 64 -", "house_number": "64", "latitude": 50.052795, "longitude": 43.23643, "od": "2015-07-01 00:00:00", "oid": 2024375, "on": "Михайловка, ул. Ленина 64", "pb2c": "88001000800", "pla": false, "pr": 1, "r12c": "524224", "rid": 34, "sb2b": false, "sb2c": true, "street_name": "ул. Ленина" }, "geometry": { "type": "Point", "coordinates": [ 43.23643, 50.052795 ] } },
{ "type": "Feature", "properties": { "city_name": "г. Волгоград", "fon": "г. Волгоград ул. им Маршала Еременко 100 -", "house_number": "100", "latitude": 48.768387, "longitude": 44.54346, "od": "2015-07-01 00:00:00", "oid": 2024379, "on": "Волгоград, ул. им Маршала Еременко 100", "pb2c": "88001000800", "pla": false, "pr": 11, "r12c": "524241", "rid": 34, "sb2b": false, "sb2c": true, "street_name": "ул. им Маршала Еременко" }, "geometry": { "type": "Point", "coordinates": [ 44.54346, 48.768387 ] } },
{ "type": "Feature", "properties": { "city_name": "г. Фролово", "fon": "г. Фролово ул. Народная 31 -", "house_number": "31", "latitude": 49.766205, "longitude": 43.65321, "od": "2015-07-01 00:00:00", "oid": 2024381, "on": "Фролово, ул. Народная 31", "pb2c": "88001000800", "pla": false, "pr": 1, "r12c": "524226", "rid": 34, "sb2b": false, "sb2c": true, "street_name": "ул. Народная" }, "geometry": { "type": "Point", "coordinates": [ 43.65321, 49.766205 ] } },
{ "type": "Feature", "properties": { "city_name": "рп. Светлый Яр", "fon": "рп. Светлый Яр ул. Сидорова 19 -", "house_number": "19", "latitude": 48.475685, "longitude": 44.77977, "od": "2015-07-01 00:00:00", "oid": 2024392, "on": "Светлый Яр, ул. Сидорова 19", "pb2c": "88001000800", "pla": false, "pr": 1, "r12c": "524238", "rid": 34, "sb2b": false, "sb2c": true, "street_name": "ул. Сидорова" }, "geometry": { "type": "Point", "coordinates": [ 44.77977, 48.475685 ] } },
{ "type": "Feature", "properties": { "city_name": "г. Волжский", "fon": "г. Волжский пр-кт им Ленина 25 -", "house_number": "25", "latitude": 48.803032, "longitude": 44.74027, "od": "2015-07-01 00:00:00", "oid": 2024402, "on": "Волжский, пр-кт им Ленина 25", "pb2c": "88001000800", "pla": false, "pr": 2, "r12c": "524201", "rid": 34, "sb2b": false, "sb2c": true, "street_name": "пр-кт им Ленина" }, "geometry": { "type": "Point", "coordinates": [ 44.74027, 48.803032 ] } },
{ "type": "Feature", "properties": { "city_name": "г. Урюпинск", "fon": "г. Урюпинск пр-кт Ленина 76 -", "house_number": "76", "latitude": 50.797924, "longitude": 42.019985, "od": "2015-07-01 00:00:00", "oid": 2024409, "on": "Урюпинск, пр-кт Ленина 76", "pb2c": "88001000800", "pla": false, "pr": 1, "r12c": "524233", "rid": 34, "sb2b": false, "sb2c": true, "street_name": "пр-кт Ленина" }, "geometry": { "type": "Point", "coordinates": [ 42.019985, 50.797924 ] } },
{ "type": "Feature", "properties": { "city_name": "г. Дербент", "fon": "г. Дербент ул. Гейдара Алиева 6а -", "house_number": "6а", "latitude": 42.063061, "longitude": 48.29145, "od": "2016-07-01 00:00:00", "oid": 2024417, "on": "Дербент, ул. Гейдара Алиева 6а", "pb2c": "88001000800", "pla": false, "pr": 1, "r12c": "524309", "rid": 5, "sb2b": false, "sb2c": true, "street_name": "ул. Гейдара Алиева" }, "geometry": { "type": "Point", "coordinates": [ 48.29145, 42.063061 ] } },
{ "type": "Feature", "properties": { "city_name": "г. Нарткала", "fon": "г. Нарткала ул. Ахметова М.Х. 67 -", "house_number": "67", "latitude": 43.555363, "longitude": 43.861797, "od": "2015-07-01 00:00:00", "oid": 2024442, "on": "Нарткала, ул. Ахметова М.Х. 67", "pb2c": "88001000800", "pla": false, "pr": 1, "r12c": "524407", "rid": 7, "sb2b": false, "sb2c": true, "street_name": "ул. Ахметова М.Х." }, "geometry": { "type": "Point", "coordinates": [ 43.861797, 43.555363 ] } },
{ "type": "Feature", "properties": { "city_name": "г. Нальчик", "fon": "г. Нальчик пр-кт Кулиева 17 -", "house_number": "17", "latitude": 43.475858, "longitude": 43.579247, "od": "2015-07-01 00:00:00", "oid": 2024445, "on": "Нальчик, пр-кт Кулиева 17", "pb2c": "88001000800", "pla": false, "pr": 1, "r12c": "524410", "rid": 7, "sb2b": false, "sb2c": true, "street_name": "пр-кт Кулиева" }, "geometry": { "type": "Point", "coordinates": [ 43.579247, 43.475858 ] } },
{ "type": "Feature", "properties": { "city_name": "г. Тырныауз", "fon": "г. Тырныауз пр-кт Эльбрусский 43 -", "house_number": "43", "latitude": 43.388348, "longitude": 42.919727, "od": "2015-07-01 00:00:00", "oid": 2024447, "on": "Тырныауз, пр-кт Эльбрусский 43", "pb2c": "88001000800", "pla": false, "pr": 1, "r12c": "524406", "rid": 7, "sb2b": false, "sb2c": true, "street_name": "пр-кт Эльбрусский" }, "geometry": { "type": "Point", "coordinates": [ 42.919727, 43.388348 ] } },
{ "type": "Feature", "properties": { "city_name": "г. Майский", "fon": "г. Майский ул. Ленина 44 -", "house_number": "44", "latitude": 43.6226492, "longitude": 44.0497505, "od": "2015-07-01 00:00:00", "oid": 2024452, "on": "Майский, ул. Ленина 44", "pb2c": "88001000800", "pla": false, "pr": 1, "r12c": "524401", "rid": 7, "sb2b": false, "sb2c": true, "street_name": "ул. Ленина" }, "geometry": { "type": "Point", "coordinates": [ 44.0497505, 43.6226492 ] } },
{ "type": "Feature", "properties": { "city_name": "г. Чегем", "fon": "г. Чегем ш. Баксанское 2 -", "house_number": "2", "latitude": 43.565533, "longitude": 43.590034, "od": "2015-07-01 00:00:00", "oid": 2024453, "on": "Чегем, ш. Баксанское 2", "pb2c": "88001000800", "pla": false, "pr": 1, "r12c": "524409", "rid": 7, "sb2b": false, "sb2c": true, "street_name": "ш. Баксанское" }, "geometry": { "type": "Point", "coordinates": [ 43.590034, 43.565533 ] } },
{ "type": "Feature", "properties": { "city_name": "г. Баксан", "fon": "г. Баксан пр-кт Ленина 72 -", "house_number": "72", "latitude": 43.681458, "longitude": 43.535934, "od": "2015-07-01 00:00:00", "oid": 2024456, "on": "Баксан, пр-кт Ленина 72", "pb2c": "88001000800", "pla": false, "pr": 1, "r12c": "524403", "rid": 7, "sb2b": false, "sb2c": true, "street_name": "пр-кт Ленина" }, "geometry": { "type": "Point", "coordinates": [ 43.535934, 43.681458 ] } },
{ "type": "Feature", "properties": { "city_name": "г. Терек", "fon": "г. Терек ул. Ленина 33 -", "house_number": "33", "latitude": 43.484313, "longitude": 44.140049, "od": "2015-07-01 00:00:00", "oid": 2024460, "on": "Терек, ул. Ленина 33", "pb2c": "88001000800", "pla": false, "pr": 1, "r12c": "524408", "rid": 7, "sb2b": false, "sb2c": true, "street_name": "ул. Ленина" }, "geometry": { "type": "Point", "coordinates": [ 44.140049, 43.484313 ] } },
{ "type": "Feature", "properties": { "city_name": "г. Прохладный", "fon": "г. Прохладный ул. Ленина 100 -", "house_number": "100", "latitude": 43.757434, "longitude": 44.016509, "od": "2015-07-01 00:00:00", "oid": 2024465, "on": "Прохладный, ул. Ленина 100", "pb2c": "88001000800", "pla": false, "pr": 1, "r12c": "524402", "rid": 7, "sb2b": false, "sb2c": true, "street_name": "ул. Ленина" }, "geometry": { "type": "Point", "coordinates": [ 44.016509, 43.757434 ] } },
{ "type": "Feature", "properties": { "city_name": "г. Лагань", "fon": "г. Лагань ул. Советская 66 -", "house_number": "66", "latitude": 45.391846, "longitude": 47.352055, "od": "2015-07-01 00:00:00", "oid": 2024468, "on": "Лагань, ул. Советская 66", "pb2c": "88001000800", "pla": false, "pr": 1, "r12c": "524506", "rid": 8, "sb2b": false, "sb2c": true, "street_name": "ул. Советская" }, "geometry": { "type": "Point", "coordinates": [ 47.352055, 45.391846 ] } },
{ "type": "Feature", "properties": { "city_name": "г. Элиста", "fon": "г. Элиста ул. В.И.Ленина 255 -", "house_number": "255", "latitude": 46.309147, "longitude": 44.270966, "od": "2015-07-01 00:00:00", "oid": 2024473, "on": "Элиста, ул. В.И.Ленина 255", "pb2c": "88001000800", "pla": false, "pr": 1, "r12c": "524509", "rid": 8, "sb2b": false, "sb2c": true, "street_name": "ул. В.И.Ленина" }, "geometry": { "type": "Point", "coordinates": [ 44.270966, 46.309147 ] } },
{ "type": "Feature", "properties": { "city_name": "г. Туапсе", "fon": "г. Туапсе ул. К. Маркса 9 -", "house_number": "9", "latitude": 44.097767, "longitude": 39.075912, "od": "2015-07-01 00:00:00", "oid": 2024482, "on": "Туапсе, ул. К. Маркса 9", "pb2c": "88001000800", "pla": false, "pr": 1, "r12c": "524633", "rid": 23, "sb2b": false, "sb2c": true, "street_name": "ул. К. Маркса" }, "geometry": { "type": "Point", "coordinates": [ 39.075912, 44.097767 ] } },
{ "type": "Feature", "properties": { "city_name": "г. Сочи", "fon": "г. Сочи ул. Воровского 6 -", "house_number": "6", "latitude": 43.585932, "longitude": 39.720073, "od": "2015-07-01 00:00:00", "oid": 2024483, "on": "Сочи, ул. Воровского", "pb2c": "88001000800", "pla": false, "pr": 5, "r12c": "524634", "rid": 23, "sb2b": false, "sb2c": true, "street_name": "ул. Воровского" }, "geometry": { "type": "Point", "coordinates": [ 39.720073, 43.585932 ] } },
{ "type": "Feature", "properties": { "city_name": "г. Курганинск", "fon": "г. Курганинск ул. Ленина 24 -", "house_number": "24", "latitude": 44.873066, "longitude": 40.60306, "od": "2015-07-01 00:00:00", "oid": 2024485, "on": "Курганинск, ул. Ленина 24", "pb2c": "88001000800", "pla": false, "pr": 1, "r12c": "524617", "rid": 23, "sb2b": false, "sb2c": true, "street_name": "ул. Ленина" }, "geometry": { "type": "Point", "coordinates": [ 40.60306, 44.873066 ] } },
{ "type": "Feature", "properties": { "city_name": "г. Лабинск", "fon": "г. Лабинск ул. Красная 20 -", "house_number": "20", "latitude": 44.6340052, "longitude": 40.7254361, "od": "2015-07-01 00:00:00", "oid": 2024489, "on": "Лабинск, ул. Красная 20", "pb2c": "88001000800", "pla": false, "pr": 1, "r12c": "524655", "rid": 23, "sb2b": false, "sb2c": true, "street_name": "ул. Красная" }, "geometry": { "type": "Point", "coordinates": [ 40.7254361, 44.6340052 ] } },
{ "type": "Feature", "properties": { "city_name": "пгт. Мостовской", "fon": "пгт. Мостовской ул. Горького 137 -", "house_number": "137", "latitude": 44.413834, "longitude": 40.79015, "od": "2015-07-01 00:00:00", "oid": 2024491, "on": "Мостовской, ул. Горького 137", "pb2c": "88001000800", "pla": false, "pr": 1, "r12c": "524656", "rid": 23, "sb2b": false, "sb2c": true, "street_name": "ул. Горького" }, "geometry": { "type": "Point", "coordinates": [ 40.79015, 44.413834 ] } },
{ "type": "Feature", "properties": { "city_name": "г. Гулькевичи", "fon": "г. Гулькевичи ул. Комсомольская 74 а -", "house_number": "74 а", "latitude": 45.359104, "longitude": 40.69683, "od": "2015-07-01 00:00:00", "oid": 2024492, "on": "Гулькевичи, ул. Комсомольская 74 а", "pb2c": "88001000800", "pla": false, "pr": 1, "r12c": "524630", "rid": 23, "sb2b": false, "sb2c": true, "street_name": "ул. Комсомольская" }, "geometry": { "type": "Point", "coordinates": [ 40.69683, 45.359104 ] } },
{ "type": "Feature", "properties": { "city_name": "г Горячий Ключ", "fon": "г Горячий Ключ ул Ленина 188 -", "house_number": "188", "latitude": 44.633266, "longitude": 39.132786, "od": "2015-07-01 00:00:00", "oid": 2024496, "on": "Горячий Ключ, ул. Ленина 188", "pb2c": "88001000800", "pla": false, "pr": 3, "r12c": "524639", "rid": 23, "sb2b": false, "sb2c": true, "street_name": "ул Ленина" }, "geometry": { "type": "Point", "coordinates": [ 39.132786, 44.633266 ] } },
{ "type": "Feature", "properties": { "city_name": "г. Апшеронск", "fon": "г. Апшеронск ул. Ленина 24 -", "house_number": "24", "latitude": 44.462903, "longitude": 39.743342, "od": "2015-07-01 00:00:00", "oid": 2024499, "on": "Апшеронск, ул. Ленина 24", "pb2c": "88001000800", "pla": false, "pr": 1, "r12c": "524637", "rid": 23, "sb2b": false, "sb2c": true, "street_name": "ул. Ленина" }, "geometry": { "type": "Point", "coordinates": [ 39.743342, 44.462903 ] } },
{ "type": "Feature", "properties": { "city_name": "ст-ца Динская", "fon": "ст-ца Динская ул. Красная 47 -", "house_number": "47", "latitude": 45.214794, "longitude": 39.227154, "od": "2015-07-01 00:00:00", "oid": 2024500, "on": "Динская, ул. Красная 47", "pb2c": "88001000800", "pla": false, "pr": 1, "r12c": "524652", "rid": 23, "sb2b": false, "sb2c": true, "street_name": "ул. Красная" }, "geometry": { "type": "Point", "coordinates": [ 39.227154, 45.214794 ] } },
{ "type": "Feature", "properties": { "city_name": "г. Краснодар", "fon": "г. Краснодар ул. Красная 59 -", "house_number": "59", "latitude": 45.028047, "longitude": 38.971016, "od": "2015-07-01 00:00:00", "oid": 2024505, "on": "Краснодар, ул. Красная 59", "pb2c": "88001000800", "pla": false, "pr": 18, "r12c": "524613", "rid": 23, "sb2b": false, "sb2c": true, "street_name": "ул. Красная" }, "geometry": { "type": "Point", "coordinates": [ 38.971016, 45.028047 ] } },
{ "type": "Feature", "properties": { "city_name": "г. Новороссийск", "fon": "г. Новороссийск ул. Советов 36 -", "house_number": "36", "latitude": 44.720974, "longitude": 37.773888, "od": "2015-07-01 00:00:00", "oid": 2024512, "on": "Новороссийск, ул. Советов 36", "pb2c": "88001000800", "pla": false, "pr": 5, "r12c": "524614", "rid": 23, "sb2b": false, "sb2c": true, "street_name": "ул. Советов" }, "geometry": { "type": "Point", "coordinates": [ 37.773888, 44.720974 ] } },
{ "type": "Feature", "properties": { "city_name": "г. Геленджик", "fon": "г. Геленджик ул. Горького 23 -", "house_number": "23", "latitude": 44.563686, "longitude": 38.082005, "od": "2015-07-01 00:00:00", "oid": 2024513, "on": "Геленджик, ул. Горького 23", "pb2c": "88001000800", "pla": false, "pr": 2, "r12c": "524612", "rid": 23, "sb2b": false, "sb2c": true, "street_name": "ул. Горького" }, "geometry": { "type": "Point", "coordinates": [ 38.082005, 44.563686 ] } },
{ "type": "Feature", "properties": { "city_name": "г. Анапа", "fon": "г. Анапа ул. Новороссийская 113 -", "house_number": "113", "latitude": 44.8944544, "longitude": 37.319638, "od": "2015-07-01 00:00:00", "oid": 2024516, "on": "Анапа, ул. Новороссийская 113", "pb2c": "88001000800", "pla": false, "pr": 2, "r12c": "524611", "rid": 23, "sb2b": false, "sb2c": true, "street_name": "ул. Новороссийская" }, "geometry": { "type": "Point", "coordinates": [ 37.319638, 44.8944544 ] } },
{ "type": "Feature", "properties": { "city_name": "г. Крымск", "fon": "г. Крымск ул. Коммунистическая 37 -", "house_number": "37", "latitude": 44.935833, "longitude": 37.984024, "od": "2015-07-01 00:00:00", "oid": 2024517, "on": "Крымск, ул. Коммунистическая 37", "pb2c": "88001000800", "pla": false, "pr": 2, "r12c": "524616", "rid": 23, "sb2b": false, "sb2c": true, "street_name": "ул. Коммунистическая" }, "geometry": { "type": "Point", "coordinates": [ 37.984024, 44.935833 ] } },
{ "type": "Feature", "properties": { "city_name": "г. Абинск", "fon": "г. Абинск ул. Советов 148", "house_number": "148", "latitude": 44.8660419, "longitude": 38.1492827, "od": "2015-07-01 00:00:00", "oid": 2024518, "on": "Абинск, ул. Советов 148", "pb2c": "88001000800", "pla": false, "pr": 1, "r12c": "524615", "rid": 23, "sb2b": false, "sb2c": true, "street_name": "ул. Советов" }, "geometry": { "type": "Point", "coordinates": [ 38.1492827, 44.8660419 ] } },
{ "type": "Feature", "properties": { "city_name": "г. Темрюк", "fon": "г. Темрюк ул. Ленина 68 -", "house_number": "68", "latitude": 45.27776, "longitude": 37.37025, "od": "2015-07-01 00:00:00", "oid": 2024519, "on": "Темрюк, ул. Ленина 68", "pb2c": "88001000800", "pla": false, "pr": 3, "r12c": "524619", "rid": 23, "sb2b": false, "sb2c": true, "street_name": "ул. Ленина" }, "geometry": { "type": "Point", "coordinates": [ 37.37025, 45.27776 ] } },
{ "type": "Feature", "properties": { "city_name": "г. Тимашевск", "fon": "г. Тимашевск ул. Интернациональная 4 -", "house_number": "4", "latitude": 45.6145733, "longitude": 38.9324466, "od": "2015-07-01 00:00:00", "oid": 2024524, "on": "Тимашевск, ул. Интернациональная 4", "pb2c": "88001000800", "pla": false, "pr": 1, "r12c": "524642", "rid": 23, "sb2b": false, "sb2c": true, "street_name": "ул. Интернациональная" }, "geometry": { "type": "Point", "coordinates": [ 38.9324466, 45.6145733 ] } },
{ "type": "Feature", "properties": { "city_name": "ст-ца Брюховецкая", "fon": "ст-ца Брюховецкая ул. Ленина 13 -", "house_number": "13", "latitude": 45.804231, "longitude": 39.003787, "od": "2015-07-01 00:00:00", "oid": 2024530, "on": "Брюховецкая, ул. Ленина 13", "pb2c": "88001000800", "pla": false, "pr": 1, "r12c": "524628", "rid": 23, "sb2b": false, "sb2c": true, "street_name": "ул. Ленина" }, "geometry": { "type": "Point", "coordinates": [ 39.003787, 45.804231 ] } },
{ "type": "Feature", "properties": { "city_name": "ст-ца Калининская", "fon": "ст-ца Калининская ул. Ленина 151 -", "house_number": "151", "latitude": 45.48444, "longitude": 38.665203, "od": "2015-07-01 00:00:00", "oid": 2024531, "on": "Калининская, ул. Ленина 151", "pb2c": "88001000800", "pla": false, "pr": 1, "r12c": "524640", "rid": 23, "sb2b": false, "sb2c": true, "street_name": "ул. Ленина" }, "geometry": { "type": "Point", "coordinates": [ 38.665203, 45.48444 ] } },
{ "type": "Feature", "properties": { "city_name": "ст-ца Каневская", "fon": "ст-ца Каневская ул. Нестеренко 96 -", "house_number": "96", "latitude": 46.085545, "longitude": 38.96931, "od": "2015-07-01 00:00:00", "oid": 2024536, "on": "Каневская, ул. Нестеренко 96", "pb2c": "88001000800", "pla": false, "pr": 1, "r12c": "524629", "rid": 23, "sb2b": false, "sb2c": true, "street_name": "ул. Нестеренко" }, "geometry": { "type": "Point", "coordinates": [ 38.96931, 46.085545 ] } },
{ "type": "Feature", "properties": { "city_name": "г. Ейск", "fon": "г. Ейск ул. Свердлова 100 -", "house_number": "100", "latitude": 46.709834, "longitude": 38.275615, "od": "2015-07-01 00:00:00", "oid": 2024537, "on": "Ейск, ул. Свердлова 100", "pb2c": "88001000800", "pla": false, "pr": 2, "r12c": "524623", "rid": 23, "sb2b": false, "sb2c": true, "street_name": "ул. Свердлова" }, "geometry": { "type": "Point", "coordinates": [ 38.275615, 46.709834 ] } },
{ "type": "Feature", "properties": { "city_name": "г. Кропоткин", "fon": "г. Кропоткин пер. Колхозный 31 -", "house_number": "31", "latitude": 45.43368, "longitude": 40.5471, "od": "2015-07-01 00:00:00", "oid": 2024538, "on": "Кропоткин, пер. Колхозный 31", "pb2c": "88001000800", "pla": false, "pr": 2, "r12c": "524631", "rid": 23, "sb2b": false, "sb2c": true, "street_name": "пер. Колхозный" }, "geometry": { "type": "Point", "coordinates": [ 40.5471, 45.43368 ] } },
{ "type": "Feature", "properties": { "city_name": "ст-ца Кущевская", "fon": "ст-ца Кущевская ул. Ленина 15 -", "house_number": "15", "latitude": 46.558586, "longitude": 39.616215, "od": "2015-07-01 00:00:00", "oid": 2024539, "on": "Кущёвская, ул. Ленина 15", "pb2c": "88001000800", "pla": false, "pr": 1, "r12c": "524645", "rid": 23, "sb2b": false, "sb2c": true, "street_name": "ул. Ленина" }, "geometry": { "type": "Point", "coordinates": [ 39.616215, 46.558586 ] } },
{ "type": "Feature", "properties": { "city_name": "ст-ца Павловская", "fon": "ст-ца Павловская ул. Горького 294 -", "house_number": "294", "latitude": 46.135043, "longitude": 39.785807, "od": "2015-07-01 00:00:00", "oid": 2024540, "on": "Павловская, ул. Горького 294", "pb2c": "88001000800", "pla": false, "pr": 1, "r12c": "524627", "rid": 23, "sb2b": false, "sb2c": true, "street_name": "ул. Горького" }, "geometry": { "type": "Point", "coordinates": [ 39.785807, 46.135043 ] } },
{ "type": "Feature", "properties": { "city_name": "г. Усть-Лабинск", "fon": "г. Усть-Лабинск ул. Советская 49 -", "house_number": "49", "latitude": 45.2060056, "longitude": 39.6891581, "od": "2015-07-01 00:00:00", "oid": 2024542, "on": "Усть-Лабинск, ул. Советская 49", "pb2c": "88001000800", "pla": false, "pr": 1, "r12c": "524654", "rid": 23, "sb2b": false, "sb2c": true, "street_name": "ул. Советская" }, "geometry": { "type": "Point", "coordinates": [ 39.6891581, 45.2060056 ] } },
{ "type": "Feature", "properties": { "city_name": "ст-ца Тбилисская", "fon": "ст-ца Тбилисская ул. Первомайская 24 -", "house_number": "24", "latitude": 45.35884, "longitude": 40.19715, "od": "2015-07-01 00:00:00", "oid": 2024543, "on": "Тбилисская, ул. Первомайская 24", "pb2c": "88001000800", "pla": false, "pr": 1, "r12c": "524632", "rid": 23, "sb2b": false, "sb2c": true, "street_name": "ул. Первомайская" }, "geometry": { "type": "Point", "coordinates": [ 40.19715, 45.35884 ] } },
{ "type": "Feature", "properties": { "city_name": "с. Белая Глина", "fon": "с. Белая Глина ул. Красная 119 -", "house_number": "119", "latitude": 46.0757098, "longitude": 40.8753181, "od": "2015-07-01 00:00:00", "oid": 2024544, "on": "Белая Глина, ул. Красная 119", "pb2c": "88001000800", "pla": false, "pr": 1, "r12c": "524620", "rid": 23, "sb2b": false, "sb2c": true, "street_name": "ул. Красная" }, "geometry": { "type": "Point", "coordinates": [ 40.8753181, 46.0757098 ] } },
{ "type": "Feature", "properties": { "city_name": "г. Тихорецк", "fon": "г. Тихорецк ул. Октябрьская 24 а -", "house_number": "24 а", "latitude": 45.853542, "longitude": 40.1247768, "od": "2015-07-01 00:00:00", "oid": 2024545, "on": "Тихорецк, ул. Октябрьская 24 а", "pb2c": "88001000800", "pla": false, "pr": 1, "r12c": "524622", "rid": 23, "sb2b": false, "sb2c": true, "street_name": "ул. Октябрьская" }, "geometry": { "type": "Point", "coordinates": [ 40.1247768, 45.853542 ] } },
{ "type": "Feature", "properties": { "city_name": "ст-ца Новопокровская", "fon": "ст-ца Новопокровская ул. Ленина 87 -", "house_number": "87", "latitude": 45.953136, "longitude": 40.707703, "od": "2015-07-01 00:00:00", "oid": 2024546, "on": "Новопокровская, ул. Ленина 87", "pb2c": "88001000800", "pla": false, "pr": 1, "r12c": "524621", "rid": 23, "sb2b": false, "sb2c": true, "street_name": "ул. Ленина" }, "geometry": { "type": "Point", "coordinates": [ 40.707703, 45.953136 ] } },
{ "type": "Feature", "properties": { "city_name": "г. Кореновск", "fon": "г. Кореновск ул. Карла Маркса 209 а -", "house_number": "209 а", "latitude": 45.47006, "longitude": 39.451228, "od": "2015-07-01 00:00:00", "oid": 2024548, "on": "Кореновск, ул. Карла Маркса 209 а", "pb2c": "88001000800", "pla": false, "pr": 1, "r12c": "524653", "rid": 23, "sb2b": false, "sb2c": true, "street_name": "ул. Карла Маркса" }, "geometry": { "type": "Point", "coordinates": [ 39.451228, 45.47006 ] } },
{ "type": "Feature", "properties": { "city_name": "ст-ца Ленинградская", "fon": "ст-ца Ленинградская ул. Ленина 33 б -", "house_number": "33 б", "latitude": 46.322818, "longitude": 39.391185, "od": "2015-07-01 00:00:00", "oid": 2024549, "on": "Ленинградская, ул. Ленина 33 б", "pb2c": "88001000800", "pla": false, "pr": 1, "r12c": "524646", "rid": 23, "sb2b": false, "sb2c": true, "street_name": "ул. Ленина" }, "geometry": { "type": "Point", "coordinates": [ 39.391185, 46.322818 ] } },
{ "type": "Feature", "properties": { "city_name": "г. Беслан", "fon": "г. Беслан ул. Генерала Плиева 19 -", "house_number": "19", "latitude": 43.188484, "longitude": 44.53805, "od": "2015-07-01 00:00:00", "oid": 2024552, "on": "Беслан, ул. Генерала Плиева 19", "pb2c": "88001000800", "pla": false, "pr": 1, "r12c": "524802", "rid": 15, "sb2b": false, "sb2c": true, "street_name": "ул. Генерала Плиева" }, "geometry": { "type": "Point", "coordinates": [ 44.53805, 43.188484 ] } },
{ "type": "Feature", "properties": { "city_name": "г. Алагир", "fon": "г. Алагир ул. Алагирская 127 -", "house_number": "127", "latitude": 44.221469, "longitude": 43.038467, "od": "2015-07-01 00:00:00", "oid": 2024557, "on": "Алагир, ул. Алагирская 127", "pb2c": "88001000800", "pla": false, "pr": 1, "r12c": "524808", "rid": 15, "sb2b": false, "sb2c": true, "street_name": "ул. Алагирская" }, "geometry": { "type": "Point", "coordinates": [ 43.038467, 44.221469 ] } },
{ "type": "Feature", "properties": { "city_name": "г. Владикавказ", "fon": "г. Владикавказ ул. Кирова 47 -", "house_number": "47", "latitude": 43.03627, "longitude": 44.68393, "od": "2015-07-01 00:00:00", "oid": 2024558, "on": "Владикавказ, ул. Кирова 47", "pb2c": "88001000800", "pla": false, "pr": 4, "r12c": "524805", "rid": 15, "sb2b": false, "sb2c": true, "street_name": "ул. Кирова" }, "geometry": { "type": "Point", "coordinates": [ 44.68393, 43.03627 ] } },
{ "type": "Feature", "properties": { "city_name": "г. Ардон", "fon": "г. Ардон ул. Пролетарская 81 -", "house_number": "81", "latitude": 43.180573, "longitude": 44.30869, "od": "2015-07-01 00:00:00", "oid": 2024560, "on": "Ардон, ул. Пролетарская 81", "pb2c": "88001000800", "pla": false, "pr": 1, "r12c": "524809", "rid": 15, "sb2b": false, "sb2c": true, "street_name": "ул. Пролетарская" }, "geometry": { "type": "Point", "coordinates": [ 44.30869, 43.180573 ] } },
{ "type": "Feature", "properties": { "city_name": "г. Моздок", "fon": "г. Моздок ул. Кирова 78 -", "house_number": "78", "latitude": 43.73588, "longitude": 44.65671, "od": "2015-07-01 00:00:00", "oid": 2024561, "on": "Моздок, ул. Кирова 78", "pb2c": "88001000800", "pla": false, "pr": 1, "r12c": "524801", "rid": 15, "sb2b": false, "sb2c": true, "street_name": "ул. Кирова" }, "geometry": { "type": "Point", "coordinates": [ 44.65671, 43.73588 ] } },
{ "type": "Feature", "properties": { "city_name": "г. Ессентуки", "fon": "г. Ессентуки ул. Кисловодская 18 -", "house_number": "18", "latitude": 44.04348, "longitude": 42.855038, "od": "2015-07-01 00:00:00", "oid": 2024563, "on": "Ессентуки, ул. Кисловодская 18", "pb2c": "88001000800", "pla": false, "pr": 2, "r12c": "524950", "rid": 26, "sb2b": false, "sb2c": true, "street_name": "ул. Кисловодская" }, "geometry": { "type": "Point", "coordinates": [ 42.855038, 44.04348 ] } },
{ "type": "Feature", "properties": { "city_name": "г. Пятигорск", "fon": "г. Пятигорск пр-кт Кирова 52 -", "house_number": "52", "latitude": 44.0363, "longitude": 43.07145, "od": "2015-07-01 00:00:00", "oid": 2024564, "on": "Пятигорск, пр-кт Кирова 52", "pb2c": "88001000800", "pla": false, "pr": 3, "r12c": "524915", "rid": 26, "sb2b": false, "sb2c": true, "street_name": "пр-кт Кирова" }, "geometry": { "type": "Point", "coordinates": [ 43.07145, 44.0363 ] } },
{ "type": "Feature", "properties": { "city_name": "г. Ставрополь", "fon": "г. Ставрополь ул. Ломоносова 19 -", "house_number": "19", "latitude": 45.039802, "longitude": 41.956778, "od": "2015-07-01 00:00:00", "oid": 2024565, "on": "Ставрополь, ул. Ломоносова 19", "pb2c": "88001000800", "pla": false, "pr": 7, "r12c": "524918", "rid": 26, "sb2b": false, "sb2c": true, "street_name": "ул. Ломоносова" }, "geometry": { "type": "Point", "coordinates": [ 41.956778, 45.039802 ] } },
{ "type": "Feature", "properties": { "city_name": "г. Буденновск", "fon": "г. Буденновск ул. Октябрьская 46 -", "house_number": "46", "latitude": 44.78097, "longitude": 44.162952, "od": "2015-07-01 00:00:00", "oid": 2024569, "on": "Буденновск, ул. Октябрьская 46", "pb2c": "88001000800", "pla": false, "pr": 1, "r12c": "524937", "rid": 26, "sb2b": false, "sb2c": true, "street_name": "ул. Октябрьская" }, "geometry": { "type": "Point", "coordinates": [ 44.162952, 44.78097 ] } },
{ "type": "Feature", "properties": { "city_name": "г. Изобильный", "fon": "г. Изобильный ул. Ленина 9 -", "house_number": "9", "latitude": 45.37564, "longitude": 41.714043, "od": "2015-07-01 00:00:00", "oid": 2024570, "on": "Изобильный, ул. Ленина 9", "pb2c": "88001000800", "pla": false, "pr": 1, "r12c": "524928", "rid": 26, "sb2b": false, "sb2c": true, "street_name": "ул. Ленина" }, "geometry": { "type": "Point", "coordinates": [ 41.714043, 45.37564 ] } },
{ "type": "Feature", "properties": { "city_name": "г. Зеленокумск", "fon": "г. Зеленокумск ул. Мира 22 -", "house_number": "22", "latitude": 44.404716, "longitude": 43.885345, "od": "2015-07-01 00:00:00", "oid": 2024573, "on": "Зеленокумск, ул. Мира 22", "pb2c": "88001000800", "pla": false, "pr": 1, "r12c": "524921", "rid": 26, "sb2b": false, "sb2c": true, "street_name": "ул. Мира" }, "geometry": { "type": "Point", "coordinates": [ 43.885345, 44.404716 ] } },
{ "type": "Feature", "properties": { "city_name": "г. Михайловск", "fon": "г. Михайловск ул. Гагарина 427 -", "house_number": "427", "latitude": 45.128487, "longitude": 42.02613, "od": "2015-07-01 00:00:00", "oid": 2024576, "on": "Михайловск, ул. Гагарина 427", "pb2c": "88001000800", "pla": false, "pr": 1, "r12c": "524934", "rid": 26, "sb2b": false, "sb2c": true, "street_name": "ул. Гагарина" }, "geometry": { "type": "Point", "coordinates": [ 42.02613, 45.128487 ] } },
{ "type": "Feature", "properties": { "city_name": "г. Ставрополь", "fon": "г. Ставрополь ул. Мира 290 -", "house_number": "290", "latitude": 45.03702, "longitude": 41.96487, "od": "2015-07-01 00:00:00", "oid": 2024577, "on": "Ставрополь, ул. Мира 290", "pb2c": "88001000800", "pla": false, "pr": 8, "r12c": "524917", "rid": 26, "sb2b": false, "sb2c": true, "street_name": "ул. Мира" }, "geometry": { "type": "Point", "coordinates": [ 41.96487, 45.03702 ] } },
{ "type": "Feature", "properties": { "city_name": "г. Минеральные Воды", "fon": "г. Минеральные Воды пр-кт 22 Партсъезда 28 -", "house_number": "28", "latitude": 44.20936, "longitude": 43.137913, "od": "2015-07-01 00:00:00", "oid": 2024578, "on": "Минеральные Воды, пр-кт 22 Партсъезда 28", "pb2c": "88001000800", "pla": false, "pr": 1, "r12c": "524949", "rid": 26, "sb2b": false, "sb2c": true, "street_name": "пр-кт 22 Партсъезда" }, "geometry": { "type": "Point", "coordinates": [ 43.137913, 44.20936 ] } },
{ "type": "Feature", "properties": { "city_name": "г. Нефтекумск", "fon": "г. Нефтекумск мкр. 5-й - Дом связи", "house_number": "-", "latitude": 44.754265, "longitude": 44.987637, "od": "2015-07-01 00:00:00", "oid": 2024579, "on": "Нефтекумск, мкр. 5-й - Дом связи", "pb2c": "88001000800", "pla": false, "pr": 1, "r12c": "524940", "rid": 26, "sb2b": false, "sb2c": true, "street_name": "мкр. 5-й" }, "geometry": { "type": "Point", "coordinates": [ 44.987637, 44.754265 ] } },
{ "type": "Feature", "properties": { "city_name": "г. Светлоград", "fon": "г. Светлоград ул. Ленина 39 -", "house_number": "39", "latitude": 45.33953, "longitude": 42.84317, "od": "2015-07-01 00:00:00", "oid": 2024580, "on": "Светлоград, ул. Ленина 39", "pb2c": "88001000800", "pla": false, "pr": 1, "r12c": "524926", "rid": 26, "sb2b": false, "sb2c": true, "street_name": "ул. Ленина" }, "geometry": { "type": "Point", "coordinates": [ 42.84317, 45.33953 ] } },
{ "type": "Feature", "properties": { "city_name": "г. Черкесск", "fon": "г. Черкесск ул. Первомайская 30 -", "house_number": "30", "latitude": 44.226384, "longitude": 42.0495574, "od": "2015-07-01 00:00:00", "oid": 2024583, "on": "Черкесск, ул. Первомайская 30", "pb2c": "88001000800", "pla": false, "pr": 3, "r12c": "524905", "rid": 9, "sb2b": false, "sb2c": true, "street_name": "ул. Первомайская" }, "geometry": { "type": "Point", "coordinates": [ 42.0495574, 44.226384 ] } },
{ "type": "Feature", "properties": { "city_name": "г. Ставрополь", "fon": "г. Ставрополь ул. 50 лет ВЛКСМ 45 -", "house_number": "45", "latitude": 45.0093783, "longitude": 41.9213279, "od": "2015-07-01 00:00:00", "oid": 2024584, "on": "Ставрополь, ул. 50 лет ВЛКСМ 45", "pb2c": "88001000800", "pla": false, "pr": 5, "r12c": "524919", "rid": 26, "sb2b": false, "sb2c": true, "street_name": "ул. 50 лет ВЛКСМ" }, "geometry": { "type": "Point", "coordinates": [ 41.9213279, 45.0093783 ] } },
{ "type": "Feature", "properties": { "city_name": "г. Лермонтов", "fon": "г. Лермонтов пр-кт Лермонтова 2 -", "house_number": "2", "latitude": 44.106678, "longitude": 42.977604, "od": "2015-07-01 00:00:00", "oid": 2024587, "on": "Лермонтов, пр-кт Лермонтова 2", "pb2c": "88001000800", "pla": false, "pr": 1, "r12c": "524948", "rid": 26, "sb2b": false, "sb2c": true, "street_name": "пр-кт Лермонтова" }, "geometry": { "type": "Point", "coordinates": [ 42.977604, 44.106678 ] } },
{ "type": "Feature", "properties": { "city_name": "г. Ставрополь", "fon": "г. Ставрополь пер. Шеболдаева 4 -", "house_number": "4", "latitude": 45.0584, "longitude": 41.929784, "od": "2015-07-01 00:00:00", "oid": 2024595, "on": "Ставрополь, пер. Шеболдаева 4", "pb2c": "88001000800", "pla": false, "pr": 6, "r12c": "524920", "rid": 26, "sb2b": false, "sb2c": true, "street_name": "пер. Шеболдаева" }, "geometry": { "type": "Point", "coordinates": [ 41.929784, 45.0584 ] } },
{ "type": "Feature", "properties": { "city_name": "ст-ца Ессентукская", "fon": "ст-ца Ессентукская ул. Гагарина 99 -", "house_number": "99", "latitude": 44.030132, "longitude": 42.875996, "od": "2015-07-01 00:00:00", "oid": 2024598, "on": "Ессентукская, ул. Гагарина 99", "pb2c": "88001000800", "pla": false, "pr": 1, "r12c": "524951", "rid": 26, "sb2b": false, "sb2c": true, "street_name": "ул. Гагарина" }, "geometry": { "type": "Point", "coordinates": [ 42.875996, 44.030132 ] } },
{ "type": "Feature", "properties": { "city_name": "с. Александровское", "fon": "с. Александровское ул. Блинова 98 -", "house_number": "98", "latitude": 44.711396, "longitude": 42.99932, "od": "2015-07-01 00:00:00", "oid": 2024600, "on": "Александровское, ул. Блинова 98", "pb2c": "88001000800", "pla": false, "pr": 1, "r12c": "524945", "rid": 26, "sb2b": false, "sb2c": true, "street_name": "ул. Блинова" }, "geometry": { "type": "Point", "coordinates": [ 42.99932, 44.711396 ] } },
{ "type": "Feature", "properties": { "city_name": "г. Волгодонск", "fon": "г. Волгодонск ул. Ленина 60 -", "house_number": "60", "latitude": 47.5174989, "longitude": 42.153121, "od": "2015-07-01 00:00:00", "oid": 2024608, "on": "Волгодонск, ул. Ленина 60", "pb2c": "88001000800", "pla": false, "pr": 1, "r12c": "524711", "rid": 61, "sb2b": false, "sb2c": true, "street_name": "ул. Ленина" }, "geometry": { "type": "Point", "coordinates": [ 42.153121, 47.5174989 ] } },
{ "type": "Feature", "properties": { "city_name": "г. Каменск-Шахтинский", "fon": "г. Каменск-Шахтинский ул. Арсенальная 1 -", "house_number": "1", "latitude": 48.2531673, "longitude": 40.2720924, "od": "2015-07-01 00:00:00", "oid": 2024610, "on": "Каменск-Шахтинский, ул. Арсенальная 1", "pb2c": "88001000800", "pla": false, "pr": 2, "r12c": "524731", "rid": 61, "sb2b": false, "sb2c": true, "street_name": "ул. Арсенальная" }, "geometry": { "type": "Point", "coordinates": [ 40.2720924, 48.2531673 ] } },
{ "type": "Feature", "properties": { "city_name": "г. Таганрог", "fon": "г. Таганрог ул. Сергея Шило 243 -", "house_number": "243", "latitude": 47.221767, "longitude": 38.86363, "od": "2015-07-01 00:00:00", "oid": 2024611, "on": "Таганрог, ул. Сергея Шило 243", "pb2c": "88001000800", "pla": false, "pr": 1, "r12c": "524702", "rid": 61, "sb2b": false, "sb2c": true, "street_name": "ул. Сергея Шило" }, "geometry": { "type": "Point", "coordinates": [ 38.86363, 47.221767 ] } },
{ "type": "Feature", "properties": { "city_name": "г. Новочеркасск", "fon": "г. Новочеркасск пр-кт Баклановский 25 -", "house_number": "25", "latitude": 47.421626, "longitude": 40.088642, "od": "2015-07-01 00:00:00", "oid": 2024612, "on": "Новочеркасск, пр-кт Баклановский 25", "pb2c": "88001000800", "pla": false, "pr": 1, "r12c": "524723", "rid": 61, "sb2b": false, "sb2c": true, "street_name": "пр-кт Баклановский" }, "geometry": { "type": "Point", "coordinates": [ 40.088642, 47.421626 ] } },
{ "type": "Feature", "properties": { "city_name": "рп. Усть-Донецкий", "fon": "рп. Усть-Донецкий ул. Ленина 15 -", "house_number": "15", "latitude": 47.640083, "longitude": 40.866203, "od": "2015-07-01 00:00:00", "oid": 2024613, "on": "Усть-Донецкий, ул. Ленина 15", "pb2c": "88001000800", "pla": false, "pr": 1, "r12c": "524720", "rid": 61, "sb2b": false, "sb2c": true, "street_name": "ул. Ленина" }, "geometry": { "type": "Point", "coordinates": [ 40.866203, 47.640083 ] } },